[{"website": "http://www.noblepigaustin.com", "name": "Noble Pig", "geometry": {"location": {"lat": 30.4581863, "lng": -97.8223608}, "viewport": {"northeast": {"lat": 30.4595352802915, "lng": -97.82101181970849}, "southwest": {"lat": 30.4568373197085, "lng": -97.82370978029151}}, "location_type": "APPROXIMATE"}, "partial_match": true, "address": "11815 620 N., Suite 4, Austin, TX 78750", "address_components": [{"long_name": "4", "short_name": "4", "types": ["subpremise"]}, {"long_name": "11815", "short_name": "11815", "types": ["street_number"]}, {"long_name": "Ranch Road 620 North", "short_name": "Ranch Rd 620 N", "types": ["route"]}, {"long_name": "Hill Country Center", "short_name": "Hill Country Center", "types": ["neighborhood", "political"]}, {"long_name": "Austin", "short_name": "Austin", "types": ["locality", "political"]}, {"long_name": "Williamson County", "short_name": "Williamson County", "types": ["administrative_area_level_2", "political"]}, {"long_name": "Texas", "short_name": "TX", "types": ["administrative_area_level_1", "political"]}, {"long_name": "United States", "short_name": "US", "types": ["country", "political"]}, {"long_name": "78750", "short_name": "78750", "types": ["postal_code"]}], "formatted_address": "11815 Ranch Road 620 North #4, Austin, TX 78750, USA", "types": ["subpremise"]}, {"website": "http://www.austinszechuanhouse.com/", "name": "Szechuan House", "geometry": {"location": {"lat": 30.39442, "lng": -97.720187}, "viewport": {"northeast": {"lat": 30.3957689802915, "lng": -97.71883801970849}, "southwest": {"lat": 30.3930710197085, "lng": -97.72153598029149}}, "location_type": "ROOFTOP"}, "partial_match": true, "address": "11005 Burnet Road, Austin, TX 79858", "address_components": [{"long_name": "11005", "short_name": "11005", "types": ["street_number"]}, {"long_name": "Burnet Road", "short_name": "Burnet Rd", "types": ["route"]}, {"long_name": "North Burnet", "short_name": "North Burnet", "types": ["neighborhood", "political"]}, {"long_name": "Austin", "short_name": "Austin", "types": ["locality", "political"]}, {"long_name": "Travis County", "short_name": "Travis County", "types": ["administrative_area_level_2", "political"]}, {"long_name": "Texas", "short_name": "TX", "types": ["administrative_area_level_1", "political"]}, {"long_name": "United States", "short_name": "US", "types": ["country", "political"]}, {"long_name": "78758", "short_name": "78758", "types": ["postal_code"]}], "formatted_address": "11005 Burnet Road, Austin, TX 78758, USA", "types": ["street_address"]}, {"website": "http://www.phosaigonnoodlehouse.com/", "name": "Pho Saigon", "geometry": {"location": {"lat": 30.3780972, "lng": -97.6867389}, "viewport": {"northeast": {"lat": 30.3794461802915, "lng": -97.6853899197085}, "southwest": {"lat": 30.3767482197085, "lng": -97.6880878802915}}, "location_type": "APPROXIMATE"}, "partial_match": true, "address": "10901 N Lamar Blvd, #108, Austin, TX 78753", "address_components": [{"long_name": "108", "short_name": "108", "types": ["subpremise"]}, {"long_name": "Chinatown Shopping Center", "short_name": "Chinatown Shopping Center", "types": ["establishment"]}, {"long_name": "10901", "short_name": "10901", "types": ["street_number"]}, {"long_name": "North Lamar Boulevard", "short_name": "N Lamar Blvd", "types": ["route"]}, {"long_name": "North Lamar", "short_name": "North Lamar", "types": ["neighborhood", "political"]}, {"long_name": "Austin", "short_name": "Austin", "types": ["locality", "political"]}, {"long_name": "Travis County", "short_name": "Travis County", "types": ["administrative_area_level_2", "political"]}, {"long_name": "Texas", "short_name": "TX", "types": ["administrative_area_level_1", "political"]}, {"long_name": "United States", "short_name": "US", "types": ["country", "political"]}, {"long_name": "78753", "short_name": "78753", "types": ["postal_code"]}], "formatted_address": "10901 North Lamar Boulevard #108, Chinatown Shopping Center, Austin, TX 78753, USA", "types": ["subpremise"]}, {"website": "", "name": "Ramen Tatsu-ya", "geometry": {"location": {"lat": 30.3614235, "lng": -97.7156472}, "viewport": {"northeast": {"lat": 30.3627724802915, "lng": -97.71429821970851}, "southwest": {"lat": 30.3600745197085, "lng": -97.71699618029152}}, "location_type": "APPROXIMATE"}, "partial_match": true, "address": "8557 Research Blvd #126, Austin, TX 78758", "address_components": [{"long_name": "126", "short_name": "126", "types": ["subpremise"]}, {"long_name": "8557", "short_name": "8557", "types": ["street_number"]}, {"long_name": "Research Boulevard", "short_name": "Research Blvd", "types": ["route"]}, {"long_name": "North Austin Civic Association", "short_name": "North Austin Civic Association", "types": ["neighborhood", "political"]}, {"long_name": "Austin", "short_name": "Austin", "types": ["locality", "political"]}, {"long_name": "Travis County", "short_name": "Travis County", "types": ["administrative_area_level_2", "political"]}, {"long_name": "Texas", "short_name": "TX", "types": ["administrative_area_level_1", "political"]}, {"long_name": "United States", "short_name": "US", "types": ["country", "political"]}, {"long_name": "78758", "short_name": "78758", "types": ["postal_code"]}], "formatted_address": "8557 Research Boulevard #126, Austin, TX 78758, USA", "types": ["subpremise"]}, {"website": "http://www.noblepigaustin.com", "name": "Noble Sandwich Company", "geometry": {"location": {"lat": 30.4619379, "lng": -97.81467099999999}, "viewport": {"northeast": {"lat": 30.4632868802915, "lng": -97.8133220197085}, "southwest": {"lat": 30.4605889197085, "lng": -97.8160199802915}}, "location_type": "APPROXIMATE"}, "partial_match": true, "address": "12233 Ranch Road 620 North #105, Austin, TX 78750", "address_components": [{"long_name": "105", "short_name": "105", "types": ["subpremise"]}, {"long_name": "12233", "short_name": "12233", "types": ["street_number"]}, {"long_name": "Ranch Road 620 North", "short_name": "Ranch Rd 620 N", "types": ["route"]}, {"long_name": "Village At Anderson Mill", "short_name": "Village At Anderson Mill", "types": ["neighborhood", "political"]}, {"long_name": "Austin", "short_name": "Austin", "types": ["locality", "political"]}, {"long_name": "Williamson County", "short_name": "Williamson County", "types": ["administrative_area_level_2", "political"]}, {"long_name": "Texas", "short_name": "TX", "types": ["administrative_area_level_1", "political"]}, {"long_name": "United States", "short_name": "US", "types": ["country", "political"]}, {"long_name": "78750", "short_name": "78750", "types": ["postal_code"]}], "formatted_address": "12233 Ranch Road 620 North #105, Austin, TX 78750, USA", "types": ["subpremise"]}, {"website": "", "name": "Stiles Switch BBQ & Brew", "geometry": {"location": {"lat": 30.334526, "lng": -97.72168099999999}, "viewport": {"northeast": {"lat": 30.3358749802915, "lng": -97.7203320197085}, "southwest": {"lat": 30.3331770197085, "lng": -97.7230299802915}}, "location_type": "ROOFTOP"}, "partial_match": true, "address": "6610 N Lamar Blvd, Austin, TX 78757, Austin, TX 78757", "address_components": [{"long_name": "6610", "short_name": "6610", "types": ["street_number"]}, {"long_name": "North Lamar Boulevard", "short_name": "N Lamar Blvd", "types": ["route"]}, {"long_name": "Brentwood", "short_name": "Brentwood", "types": ["neighborhood", "political"]}, {"long_name": "Austin", "short_name": "Austin", "types": ["locality", "political"]}, {"long_name": "Travis County", "short_name": "Travis County", "types": ["administrative_area_level_2", "political"]}, {"long_name": "Texas", "short_name": "TX", "types": ["administrative_area_level_1", "political"]}, {"long_name": "United States", "short_name": "US", "types": ["country", "political"]}, {"long_name": "78752", "short_name": "78752", "types": ["postal_code"]}], "formatted_address": "6610 North Lamar Boulevard, Austin, TX 78752, USA", "types": ["street_address"]}, {"website": "http://amayastacovillage.com", "name": "Amaya's Taco Village", "geometry": {"location": {"lat": 30.319336, "lng": -97.70814}, "viewport": {"northeast": {"lat": 30.3206849802915, "lng": -97.7067910197085}, "southwest": {"lat": 30.3179870197085, "lng": -97.70948898029151}}, "location_type": "ROOFTOP"}, "address": "5804 N Interstate 35, Austin, TX 78751", "address_components": [{"long_name": "5804", "short_name": "5804", "types": ["street_number"]}, {"long_name": "North Interstate 35", "short_name": "N Interstate 35", "types": ["route"]}, {"long_name": "North Loop", "short_name": "North Loop", "types": ["neighborhood", "political"]}, {"long_name": "Austin", "short_name": "Austin", "types": ["locality", "political"]}, {"long_name": "Travis County", "short_name": "Travis County", "types": ["administrative_area_level_2", "political"]}, {"long_name": "Texas", "short_name": "TX", "types": ["administrative_area_level_1", "political"]}, {"long_name": "United States", "short_name": "US", "types": ["country", "political"]}, {"long_name": "78751", "short_name": "78751", "types": ["postal_code"]}], "formatted_address": "5804 North Interstate 35, Austin, TX 78751, USA", "types": ["street_address"]}, {"website": "http://www.austinszechuanhouse.com/", "name": "Szechuan House", "geometry": {"location": {"lat": 30.39442, "lng": -97.720187}, "viewport": {"northeast": {"lat": 30.3957689802915, "lng": -97.71883801970849}, "southwest": {"lat": 30.3930710197085, "lng": -97.72153598029149}}, "location_type": "ROOFTOP"}, "partial_match": true, "address": "11005 Burnet Road, Austin, TX 79858", "address_components": [{"long_name": "11005", "short_name": "11005", "types": ["street_number"]}, {"long_name": "Burnet Road", "short_name": "Burnet Rd", "types": ["route"]}, {"long_name": "North Burnet", "short_name": "North Burnet", "types": ["neighborhood", "political"]}, {"long_name": "Austin", "short_name": "Austin", "types": ["locality", "political"]}, {"long_name": "Travis County", "short_name": "Travis County", "types": ["administrative_area_level_2", "political"]}, {"long_name": "Texas", "short_name": "TX", "types": ["administrative_area_level_1", "political"]}, {"long_name": "United States", "short_name": "US", "types": ["country", "political"]}, {"long_name": "78758", "short_name": "78758", "types": ["postal_code"]}], "formatted_address": "11005 Burnet Road, Austin, TX 78758, USA", "types": ["street_address"]}, {"website": "http://www.astiaustin.com", "name": "Asti Trattoria", "geometry": {"location": {"lat": 30.3048805, "lng": -97.72617799999999}, "viewport": {"northeast": {"lat": 30.3062294802915, "lng": -97.72482901970848}, "southwest": {"lat": 30.3035315197085, "lng": -97.7275269802915}}, "location_type": "ROOFTOP"}, "address": "408 E 43rd St, Austin, TX 78751", "address_components": [{"long_name": "408", "short_name": "408", "types": ["street_number"]}, {"long_name": "East 43rd Street", "short_name": "E 43rd St", "types": ["route"]}, {"long_name": "Hyde Park", "short_name": "Hyde Park", "types": ["neighborhood", "political"]}, {"long_name": "Austin", "short_name": "Austin", "types": ["locality", "political"]}, {"long_name": "Travis County", "short_name": "Travis County", "types": ["administrative_area_level_2", "political"]}, {"long_name": "Texas", "short_name": "TX", "types": ["administrative_area_level_1", "political"]}, {"long_name": "United States", "short_name": "US", "types": ["country", "political"]}, {"long_name": "78751", "short_name": "78751", "types": ["postal_code"]}], "formatted_address": "408 East 43rd Street, Austin, TX 78751, USA", "types": ["street_address"]}, {"website": "http://franklinbarbecue.com", "name": "Franklin Barbecue", "geometry": {"location": {"lat": 30.2700654, "lng": -97.7313001}, "viewport": {"northeast": {"lat": 30.2714143802915, "lng": -97.72995111970849}, "southwest": {"lat": 30.2687164197085, "lng": -97.73264908029151}}, "location_type": "ROOFTOP"}, "address": "900 E. 11th St., Austin, TX 78702", "address_components": [{"long_name": "900", "short_name": "900", "types": ["street_number"]}, {"long_name": "East 11th Street", "short_name": "E 11th St", "types": ["route"]}, {"long_name": "Central East Austin", "short_name": "Central East Austin", "types": ["neighborhood", "political"]}, {"long_name": "Austin", "short_name": "Austin", "types": ["locality", "political"]}, {"long_name": "Travis County", "short_name": "Travis County", "types": ["administrative_area_level_2", "political"]}, {"long_name": "Texas", "short_name": "TX", "types": ["administrative_area_level_1", "political"]}, {"long_name": "United States", "short_name": "US", "types": ["country", "political"]}, {"long_name": "78702", "short_name": "78702", "types": ["postal_code"]}], "formatted_address": "900 East 11th Street, Austin, TX 78702, USA", "types": ["street_address"]}, {"website": "http://www.phosaigonnoodlehouse.com/", "name": "Pho Saigon", "geometry": {"location": {"lat": 30.3780972, "lng": -97.6867389}, "viewport": {"northeast": {"lat": 30.3794461802915, "lng": -97.6853899197085}, "southwest": {"lat": 30.3767482197085, "lng": -97.6880878802915}}, "location_type": "APPROXIMATE"}, "partial_match": true, "address": "10901 N Lamar Blvd, #108, Austin, TX 78753", "address_components": [{"long_name": "108", "short_name": "108", "types": ["subpremise"]}, {"long_name": "Chinatown Shopping Center", "short_name": "Chinatown Shopping Center", "types": ["establishment"]}, {"long_name": "10901", "short_name": "10901", "types": ["street_number"]}, {"long_name": "North Lamar Boulevard", "short_name": "N Lamar Blvd", "types": ["route"]}, {"long_name": "North Lamar", "short_name": "North Lamar", "types": ["neighborhood", "political"]}, {"long_name": "Austin", "short_name": "Austin", "types": ["locality", "political"]}, {"long_name": "Travis County", "short_name": "Travis County", "types": ["administrative_area_level_2", "political"]}, {"long_name": "Texas", "short_name": "TX", "types": ["administrative_area_level_1", "political"]}, {"long_name": "United States", "short_name": "US", "types": ["country", "political"]}, {"long_name": "78753", "short_name": "78753", "types": ["postal_code"]}], "formatted_address": "10901 North Lamar Boulevard #108, Chinatown Shopping Center, Austin, TX 78753, USA", "types": ["subpremise"]}, {"website": "http://www.vinovinotx.com", "name": "Vino Vino", "geometry": {"location": {"lat": 30.3069158, "lng": -97.7352124}, "viewport": {"northeast": {"lat": 30.3082647802915, "lng": -97.73386341970848}, "southwest": {"lat": 30.3055668197085, "lng": -97.73656138029149}}, "location_type": "ROOFTOP"}, "address": "4119 Guadalupe St, Austin, TX 78751", "address_components": [{"long_name": "4119", "short_name": "4119", "types": ["street_number"]}, {"long_name": "Guadalupe Street", "short_name": "Guadalupe St", "types": ["route"]}, {"long_name": "Hyde Park", "short_name": "Hyde Park", "types": ["neighborhood", "political"]}, {"long_name": "Austin", "short_name": "Austin", "types": ["locality", "political"]}, {"long_name": "Travis County", "short_name": "Travis County", "types": ["administrative_area_level_2", "political"]}, {"long_name": "Texas", "short_name": "TX", "types": ["administrative_area_level_1", "political"]}, {"long_name": "United States", "short_name": "US", "types": ["country", "political"]}, {"long_name": "78751", "short_name": "78751", "types": ["postal_code"]}], "formatted_address": "4119 Guadalupe Street, Austin, TX 78751, USA", "types": ["street_address"]}, {"website": "", "name": "Ramen Tatsu-ya", "geometry": {"location": {"lat": 30.3614235, "lng": -97.7156472}, "viewport": {"northeast": {"lat": 30.3627724802915, "lng": -97.71429821970851}, "southwest": {"lat": 30.3600745197085, "lng": -97.71699618029152}}, "location_type": "APPROXIMATE"}, "partial_match": true, "address": "8557 Research Blvd #126, Austin, TX 78758", "address_components": [{"long_name": "126", "short_name": "126", "types": ["subpremise"]}, {"long_name": "8557", "short_name": "8557", "types": ["street_number"]}, {"long_name": "Research Boulevard", "short_name": "Research Blvd", "types": ["route"]}, {"long_name": "North Austin Civic Association", "short_name": "North Austin Civic Association", "types": ["neighborhood", "political"]}, {"long_name": "Austin", "short_name": "Austin", "types": ["locality", "political"]}, {"long_name": "Travis County", "short_name": "Travis County", "types": ["administrative_area_level_2", "political"]}, {"long_name": "Texas", "short_name": "TX", "types": ["administrative_area_level_1", "political"]}, {"long_name": "United States", "short_name": "US", "types": ["country", "political"]}, {"long_name": "78758", "short_name": "78758", "types": ["postal_code"]}], "formatted_address": "8557 Research Boulevard #126, Austin, TX 78758, USA", "types": ["subpremise"]}, {"website": "", "name": "Stiles Switch BBQ & Brew", "geometry": {"location": {"lat": 30.334526, "lng": -97.72168099999999}, "viewport": {"northeast": {"lat": 30.3358749802915, "lng": -97.7203320197085}, "southwest": {"lat": 30.3331770197085, "lng": -97.7230299802915}}, "location_type": "ROOFTOP"}, "partial_match": true, "address": "6610 N Lamar Blvd, Austin, TX 78757, Austin, TX 78757", "address_components": [{"long_name": "6610", "short_name": "6610", "types": ["street_number"]}, {"long_name": "North Lamar Boulevard", "short_name": "N Lamar Blvd", "types": ["route"]}, {"long_name": "Brentwood", "short_name": "Brentwood", "types": ["neighborhood", "political"]}, {"long_name": "Austin", "short_name": "Austin", "types": ["locality", "political"]}, {"long_name": "Travis County", "short_name": "Travis County", "types": ["administrative_area_level_2", "political"]}, {"long_name": "Texas", "short_name": "TX", "types": ["administrative_area_level_1", "political"]}, {"long_name": "United States", "short_name": "US", "types": ["country", "political"]}, {"long_name": "78752", "short_name": "78752", "types": ["postal_code"]}], "formatted_address": "6610 North Lamar Boulevard, Austin, TX 78752, USA", "types": ["street_address"]}, {"website": "http://fndaustin.com", "name": "Foreign & Domestic", "geometry": {"location": {"lat": 30.3170749, "lng": -97.71954099999999}, "viewport": {"northeast": {"lat": 30.3184238802915, "lng": -97.71819201970848}, "southwest": {"lat": 30.3157259197085, "lng": -97.7208899802915}}, "location_type": "ROOFTOP"}, "address": "306 E 53rd St, Austin, TX 78751", "address_components": [{"long_name": "306", "short_name": "306", "types": ["street_number"]}, {"long_name": "East 53rd Street", "short_name": "E 53rd St", "types": ["route"]}, {"long_name": "North Loop", "short_name": "North Loop", "types": ["neighborhood", "political"]}, {"long_name": "Austin", "short_name": "Austin", "types": ["locality", "political"]}, {"long_name": "Travis County", "short_name": "Travis County", "types": ["administrative_area_level_2", "political"]}, {"long_name": "Texas", "short_name": "TX", "types": ["administrative_area_level_1", "political"]}, {"long_name": "United States", "short_name": "US", "types": ["country", "political"]}, {"long_name": "78751", "short_name": "78751", "types": ["postal_code"]}], "formatted_address": "306 East 53rd Street, Austin, TX 78751, USA", "types": ["street_address"]}, {"website": "http://amayastacovillage.com", "name": "Amaya's Taco Village", "geometry": {"location": {"lat": 30.319336, "lng": -97.70814}, "viewport": {"northeast": {"lat": 30.3206849802915, "lng": -97.7067910197085}, "southwest": {"lat": 30.3179870197085, "lng": -97.70948898029151}}, "location_type": "ROOFTOP"}, "address": "5804 N Interstate 35, Austin, TX 78751", "address_components": [{"long_name": "5804", "short_name": "5804", "types": ["street_number"]}, {"long_name": "North Interstate 35", "short_name": "N Interstate 35", "types": ["route"]}, {"long_name": "North Loop", "short_name": "North Loop", "types": ["neighborhood", "political"]}, {"long_name": "Austin", "short_name": "Austin", "types": ["locality", "political"]}, {"long_name": "Travis County", "short_name": "Travis County", "types": ["administrative_area_level_2", "political"]}, {"long_name": "Texas", "short_name": "TX", "types": ["administrative_area_level_1", "political"]}, {"long_name": "United States", "short_name": "US", "types": ["country", "political"]}, {"long_name": "78751", "short_name": "78751", "types": ["postal_code"]}], "formatted_address": "5804 North Interstate 35, Austin, TX 78751, USA", "types": ["street_address"]}, {"website": "http://franklinbarbecue.com", "name": "Franklin Barbecue", "geometry": {"location": {"lat": 30.2700654, "lng": -97.7313001}, "viewport": {"northeast": {"lat": 30.2714143802915, "lng": -97.72995111970849}, "southwest": {"lat": 30.2687164197085, "lng": -97.73264908029151}}, "location_type": "ROOFTOP"}, "address": "900 E. 11th St., Austin, TX 78702", "address_components": [{"long_name": "900", "short_name": "900", "types": ["street_number"]}, {"long_name": "East 11th Street", "short_name": "E 11th St", "types": ["route"]}, {"long_name": "Central East Austin", "short_name": "Central East Austin", "types": ["neighborhood", "political"]}, {"long_name": "Austin", "short_name": "Austin", "types": ["locality", "political"]}, {"long_name": "Travis County", "short_name": "Travis County", "types": ["administrative_area_level_2", "political"]}, {"long_name": "Texas", "short_name": "TX", "types": ["administrative_area_level_1", "political"]}, {"long_name": "United States", "short_name": "US", "types": ["country", "political"]}, {"long_name": "78702", "short_name": "78702", "types": ["postal_code"]}], "formatted_address": "900 East 11th Street, Austin, TX 78702, USA", "types": ["street_address"]}, {"website": "http://www.contigotexas.com/austin", "name": "Contigo Austin", "geometry": {"location": {"lat": 30.2878426, "lng": -97.703443}, "viewport": {"northeast": {"lat": 30.28919158029149, "lng": -97.70209401970848}, "southwest": {"lat": 30.2864936197085, "lng": -97.7047919802915}}, "location_type": "ROOFTOP"}, "address": "2027 Anchor Ln, Austin, TX 78723", "address_components": [{"long_name": "2027", "short_name": "2027", "types": ["street_number"]}, {"long_name": "Anchor Lane", "short_name": "Anchor Ln", "types": ["route"]}, {"long_name": "MLK", "short_name": "MLK", "types": ["neighborhood", "political"]}, {"long_name": "Austin", "short_name": "Austin", "types": ["locality", "political"]}, {"long_name": "Travis County", "short_name": "Travis County", "types": ["administrative_area_level_2", "political"]}, {"long_name": "Texas", "short_name": "TX", "types": ["administrative_area_level_1", "political"]}, {"long_name": "United States", "short_name": "US", "types": ["country", "political"]}, {"long_name": "78723", "short_name": "78723", "types": ["postal_code"]}], "formatted_address": "2027 Anchor Lane, Austin, TX 78723, USA", "types": ["street_address"]}, {"website": "http://www.fricanosdeli.com", "name": "Fricano's Deli & Catering", "geometry": {"location": {"lat": 30.2882148, "lng": -97.74285640000001}, "viewport": {"northeast": {"lat": 30.2895637802915, "lng": -97.74150741970851}, "southwest": {"lat": 30.2868658197085, "lng": -97.74420538029152}}, "location_type": "ROOFTOP"}, "address": "2405 Nueces Street, Austin, TX 78705", "address_components": [{"long_name": "2405", "short_name": "2405", "types": ["street_number"]}, {"long_name": "Nueces Street", "short_name": "Nueces St", "types": ["route"]}, {"long_name": "West Campus", "short_name": "West Campus", "types": ["neighborhood", "political"]}, {"long_name": "Austin", "short_name": "Austin", "types": ["locality", "political"]}, {"long_name": "Travis County", "short_name": "Travis County", "types": ["administrative_area_level_2", "political"]}, {"long_name": "Texas", "short_name": "TX", "types": ["administrative_area_level_1", "political"]}, {"long_name": "United States", "short_name": "US", "types": ["country", "political"]}, {"long_name": "78705", "short_name": "78705", "types": ["postal_code"]}], "formatted_address": "2405 Nueces Street, Austin, TX 78705, USA", "types": ["street_address"]}, {"website": "http://www.vinovinotx.com", "name": "Vino Vino", "geometry": {"location": {"lat": 30.3069158, "lng": -97.7352124}, "viewport": {"northeast": {"lat": 30.3082647802915, "lng": -97.73386341970848}, "southwest": {"lat": 30.3055668197085, "lng": -97.73656138029149}}, "location_type": "ROOFTOP"}, "address": "4119 Guadalupe St, Austin, TX 78751", "address_components": [{"long_name": "4119", "short_name": "4119", "types": ["street_number"]}, {"long_name": "Guadalupe Street", "short_name": "Guadalupe St", "types": ["route"]}, {"long_name": "Hyde Park", "short_name": "Hyde Park", "types": ["neighborhood", "political"]}, {"long_name": "Austin", "short_name": "Austin", "types": ["locality", "political"]}, {"long_name": "Travis County", "short_name": "Travis County", "types": ["administrative_area_level_2", "political"]}, {"long_name": "Texas", "short_name": "TX", "types": ["administrative_area_level_1", "political"]}, {"long_name": "United States", "short_name": "US", "types": ["country", "political"]}, {"long_name": "78751", "short_name": "78751", "types": ["postal_code"]}], "formatted_address": "4119 Guadalupe Street, Austin, TX 78751, USA", "types": ["street_address"]}, {"website": "http://fndaustin.com", "name": "Foreign & Domestic", "geometry": {"location": {"lat": 30.3170749, "lng": -97.71954099999999}, "viewport": {"northeast": {"lat": 30.3184238802915, "lng": -97.71819201970848}, "southwest": {"lat": 30.3157259197085, "lng": -97.7208899802915}}, "location_type": "ROOFTOP"}, "address": "306 E 53rd St, Austin, TX 78751", "address_components": [{"long_name": "306", "short_name": "306", "types": ["street_number"]}, {"long_name": "East 53rd Street", "short_name": "E 53rd St", "types": ["route"]}, {"long_name": "North Loop", "short_name": "North Loop", "types": ["neighborhood", "political"]}, {"long_name": "Austin", "short_name": "Austin", "types": ["locality", "political"]}, {"long_name": "Travis County", "short_name": "Travis County", "types": ["administrative_area_level_2", "political"]}, {"long_name": "Texas", "short_name": "TX", "types": ["administrative_area_level_1", "political"]}, {"long_name": "United States", "short_name": "US", "types": ["country", "political"]}, {"long_name": "78751", "short_name": "78751", "types": ["postal_code"]}], "formatted_address": "306 East 53rd Street, Austin, TX 78751, USA", "types": ["street_address"]}, {"website": "http://www.uchirestaurants.com", "name": "Uchiko (and Uchi)", "geometry": {"location": {"lat": 30.310684, "lng": -97.740038}, "viewport": {"northeast": {"lat": 30.3120329802915, "lng": -97.73868901970849}, "southwest": {"lat": 30.3093350197085, "lng": -97.74138698029151}}, "location_type": "ROOFTOP"}, "address": "4200 N Lamar Blvd, Austin, TX 78756", "address_components": [{"long_name": "4200", "short_name": "4200", "types": ["street_number"]}, {"long_name": "North Lamar Boulevard", "short_name": "N Lamar Blvd", "types": ["route"]}, {"long_name": "Rosedale", "short_name": "Rosedale", "types": ["neighborhood", "political"]}, {"long_name": "Austin", "short_name": "Austin", "types": ["locality", "political"]}, {"long_name": "Travis County", "short_name": "Travis County", "types": ["administrative_area_level_2", "political"]}, {"long_name": "Texas", "short_name": "TX", "types": ["administrative_area_level_1", "political"]}, {"long_name": "United States", "short_name": "US", "types": ["country", "political"]}, {"long_name": "78756", "short_name": "78756", "types": ["postal_code"]}], "formatted_address": "4200 North Lamar Boulevard, Austin, TX 78756, USA", "types": ["street_address"]}, {"website": "http://www.contigotexas.com/austin", "name": "Contigo Austin", "geometry": {"location": {"lat": 30.2878426, "lng": -97.703443}, "viewport": {"northeast": {"lat": 30.28919158029149, "lng": -97.70209401970848}, "southwest": {"lat": 30.2864936197085, "lng": -97.7047919802915}}, "location_type": "ROOFTOP"}, "address": "2027 Anchor Ln, Austin, TX 78723", "address_components": [{"long_name": "2027", "short_name": "2027", "types": ["street_number"]}, {"long_name": "Anchor Lane", "short_name": "Anchor Ln", "types": ["route"]}, {"long_name": "MLK", "short_name": "MLK", "types": ["neighborhood", "political"]}, {"long_name": "Austin", "short_name": "Austin", "types": ["locality", "political"]}, {"long_name": "Travis County", "short_name": "Travis County", "types": ["administrative_area_level_2", "political"]}, {"long_name": "Texas", "short_name": "TX", "types": ["administrative_area_level_1", "political"]}, {"long_name": "United States", "short_name": "US", "types": ["country", "political"]}, {"long_name": "78723", "short_name": "78723", "types": ["postal_code"]}], "formatted_address": "2027 Anchor Lane, Austin, TX 78723, USA", "types": ["street_address"]}, {"website": "http://www.lacondesaaustin.com", "name": "La Condesa", "geometry": {"location": {"lat": 30.2655589, "lng": -97.74770869999999}, "viewport": {"northeast": {"lat": 30.2669078802915, "lng": -97.7463597197085}, "southwest": {"lat": 30.2642099197085, "lng": -97.7490576802915}}, "location_type": "ROOFTOP"}, "address": "400 W. 2nd St., Austin, TX 78701", "address_components": [{"long_name": "400", "short_name": "400", "types": ["street_number"]}, {"long_name": "West 2nd Street", "short_name": "W 2nd St", "types": ["route"]}, {"long_name": "Downtown", "short_name": "Downtown", "types": ["neighborhood", "political"]}, {"long_name": "Austin", "short_name": "Austin", "types": ["locality", "political"]}, {"long_name": "Travis County", "short_name": "Travis County", "types": ["administrative_area_level_2", "political"]}, {"long_name": "Texas", "short_name": "TX", "types": ["administrative_area_level_1", "political"]}, {"long_name": "United States", "short_name": "US", "types": ["country", "political"]}, {"long_name": "78701", "short_name": "78701", "types": ["postal_code"]}], "formatted_address": "400 West 2nd Street, Austin, TX 78701, USA", "types": ["street_address"]}, {"website": "http://www.fricanosdeli.com", "name": "Fricano's Deli & Catering", "geometry": {"location": {"lat": 30.2882148, "lng": -97.74285640000001}, "viewport": {"northeast": {"lat": 30.2895637802915, "lng": -97.74150741970851}, "southwest": {"lat": 30.2868658197085, "lng": -97.74420538029152}}, "location_type": "ROOFTOP"}, "address": "2405 Nueces Street, Austin, TX 78705", "address_components": [{"long_name": "2405", "short_name": "2405", "types": ["street_number"]}, {"long_name": "Nueces Street", "short_name": "Nueces St", "types": ["route"]}, {"long_name": "West Campus", "short_name": "West Campus", "types": ["neighborhood", "political"]}, {"long_name": "Austin", "short_name": "Austin", "types": ["locality", "political"]}, {"long_name": "Travis County", "short_name": "Travis County", "types": ["administrative_area_level_2", "political"]}, {"long_name": "Texas", "short_name": "TX", "types": ["administrative_area_level_1", "political"]}, {"long_name": "United States", "short_name": "US", "types": ["country", "political"]}, {"long_name": "78705", "short_name": "78705", "types": ["postal_code"]}], "formatted_address": "2405 Nueces Street, Austin, TX 78705, USA", "types": ["street_address"]}, {"website": "http://www.uchirestaurants.com", "name": "Uchiko (and Uchi)", "geometry": {"location": {"lat": 30.310684, "lng": -97.740038}, "viewport": {"northeast": {"lat": 30.3120329802915, "lng": -97.73868901970849}, "southwest": {"lat": 30.3093350197085, "lng": -97.74138698029151}}, "location_type": "ROOFTOP"}, "address": "4200 N Lamar Blvd, Austin, TX 78756", "address_components": [{"long_name": "4200", "short_name": "4200", "types": ["street_number"]}, {"long_name": "North Lamar Boulevard", "short_name": "N Lamar Blvd", "types": ["route"]}, {"long_name": "Rosedale", "short_name": "Rosedale", "types": ["neighborhood", "political"]}, {"long_name": "Austin", "short_name": "Austin", "types": ["locality", "political"]}, {"long_name": "Travis County", "short_name": "Travis County", "types": ["administrative_area_level_2", "political"]}, {"long_name": "Texas", "short_name": "TX", "types": ["administrative_area_level_1", "political"]}, {"long_name": "United States", "short_name": "US", "types": ["country", "political"]}, {"long_name": "78756", "short_name": "78756", "types": ["postal_code"]}], "formatted_address": "4200 North Lamar Boulevard, Austin, TX 78756, USA", "types": ["street_address"]}, {"website": "http://www.24diner.com", "name": "24 Diner", "geometry": {"location": {"lat": 30.271946, "lng": -97.7541948}, "viewport": {"northeast": {"lat": 30.2732949802915, "lng": -97.75284581970848}, "southwest": {"lat": 30.2705970197085, "lng": -97.75554378029149}}, "location_type": "ROOFTOP"}, "partial_match": true, "address": "600 N Lamar Blvd #G, Austin, TX 78703", "address_components": [{"long_name": "600", "short_name": "600", "types": ["street_number"]}, {"long_name": "North Lamar Boulevard", "short_name": "N Lamar Blvd", "types": ["route"]}, {"long_name": "Austin", "short_name": "Austin", "types": ["locality", "political"]}, {"long_name": "Travis County", "short_name": "Travis County", "types": ["administrative_area_level_2", "political"]}, {"long_name": "Texas", "short_name": "TX", "types": ["administrative_area_level_1", "political"]}, {"long_name": "United States", "short_name": "US", "types": ["country", "political"]}, {"long_name": "78703", "short_name": "78703", "types": ["postal_code"]}], "formatted_address": "600 North Lamar Boulevard, Austin, TX 78703, USA", "types": ["street_address"]}, {"website": "http://www.lacondesaaustin.com", "name": "La Condesa", "geometry": {"location": {"lat": 30.2655589, "lng": -97.74770869999999}, "viewport": {"northeast": {"lat": 30.2669078802915, "lng": -97.7463597197085}, "southwest": {"lat": 30.2642099197085, "lng": -97.7490576802915}}, "location_type": "ROOFTOP"}, "address": "400 W. 2nd St., Austin, TX 78701", "address_components": [{"long_name": "400", "short_name": "400", "types": ["street_number"]}, {"long_name": "West 2nd Street", "short_name": "W 2nd St", "types": ["route"]}, {"long_name": "Downtown", "short_name": "Downtown", "types": ["neighborhood", "political"]}, {"long_name": "Austin", "short_name": "Austin", "types": ["locality", "political"]}, {"long_name": "Travis County", "short_name": "Travis County", "types": ["administrative_area_level_2", "political"]}, {"long_name": "Texas", "short_name": "TX", "types": ["administrative_area_level_1", "political"]}, {"long_name": "United States", "short_name": "US", "types": ["country", "political"]}, {"long_name": "78701", "short_name": "78701", "types": ["postal_code"]}], "formatted_address": "400 West 2nd Street, Austin, TX 78701, USA", "types": ["street_address"]}, {"website": "http://www.24diner.com", "name": "24 Diner", "geometry": {"location": {"lat": 30.271946, "lng": -97.7541948}, "viewport": {"northeast": {"lat": 30.2732949802915, "lng": -97.75284581970848}, "southwest": {"lat": 30.2705970197085, "lng": -97.75554378029149}}, "location_type": "ROOFTOP"}, "partial_match": true, "address": "600 N Lamar Blvd #G, Austin, TX 78703", "address_components": [{"long_name": "600", "short_name": "600", "types": ["street_number"]}, {"long_name": "North Lamar Boulevard", "short_name": "N Lamar Blvd", "types": ["route"]}, {"long_name": "Austin", "short_name": "Austin", "types": ["locality", "political"]}, {"long_name": "Travis County", "short_name": "Travis County", "types": ["administrative_area_level_2", "political"]}, {"long_name": "Texas", "short_name": "TX", "types": ["administrative_area_level_1", "political"]}, {"long_name": "United States", "short_name": "US", "types": ["country", "political"]}, {"long_name": "78703", "short_name": "78703", "types": ["postal_code"]}], "formatted_address": "600 North Lamar Boulevard, Austin, TX 78703, USA", "types": ["street_address"]}, {"website": "http://www.parkside-austin.com", "name": "Parkside", "geometry": {"location": {"lat": 30.267062, "lng": -97.74032299999999}, "viewport": {"northeast": {"lat": 30.2684109802915, "lng": -97.7389740197085}, "southwest": {"lat": 30.2657130197085, "lng": -97.7416719802915}}, "location_type": "ROOFTOP"}, "address": "301 E 6th St, Austin, TX 78701", "address_components": [{"long_name": "301", "short_name": "301", "types": ["street_number"]}, {"long_name": "East 6th Street", "short_name": "E 6th St", "types": ["route"]}, {"long_name": "Downtown", "short_name": "Downtown", "types": ["neighborhood", "political"]}, {"long_name": "Austin", "short_name": "Austin", "types": ["locality", "political"]}, {"long_name": "Travis County", "short_name": "Travis County", "types": ["administrative_area_level_2", "political"]}, {"long_name": "Texas", "short_name": "TX", "types": ["administrative_area_level_1", "political"]}, {"long_name": "United States", "short_name": "US", "types": ["country", "political"]}, {"long_name": "78701", "short_name": "78701", "types": ["postal_code"]}], "formatted_address": "301 East 6th Street, Austin, TX 78701, USA", "types": ["street_address"]}, {"website": "http://www.parkside-austin.com", "name": "Parkside", "geometry": {"location": {"lat": 30.267062, "lng": -97.74032299999999}, "viewport": {"northeast": {"lat": 30.2684109802915, "lng": -97.7389740197085}, "southwest": {"lat": 30.2657130197085, "lng": -97.7416719802915}}, "location_type": "ROOFTOP"}, "address": "301 E 6th St, Austin, TX 78701", "address_components": [{"long_name": "301", "short_name": "301", "types": ["street_number"]}, {"long_name": "East 6th Street", "short_name": "E 6th St", "types": ["route"]}, {"long_name": "Downtown", "short_name": "Downtown", "types": ["neighborhood", "political"]}, {"long_name": "Austin", "short_name": "Austin", "types": ["locality", "political"]}, {"long_name": "Travis County", "short_name": "Travis County", "types": ["administrative_area_level_2", "political"]}, {"long_name": "Texas", "short_name": "TX", "types": ["administrative_area_level_1", "political"]}, {"long_name": "United States", "short_name": "US", "types": ["country", "political"]}, {"long_name": "78701", "short_name": "78701", "types": ["postal_code"]}], "formatted_address": "301 East 6th Street, Austin, TX 78701, USA", "types": ["street_address"]}, {"website": "http://www.congressaustin.com", "name": "Second Bar + Kitchen", "geometry": {"location": {"lat": 30.26477849999999, "lng": -97.7445517}, "viewport": {"northeast": {"lat": 30.26612748029149, "lng": -97.7432027197085}, "southwest": {"lat": 30.2634295197085, "lng": -97.74590068029151}}, "location_type": "ROOFTOP"}, "partial_match": true, "address": "200 Congress, Austin, TX 78701", "address_components": [{"long_name": "200", "short_name": "200", "types": ["street_number"]}, {"long_name": "Congress Avenue", "short_name": "N Congress Ave", "types": ["route"]}, {"long_name": "Downtown", "short_name": "Downtown", "types": ["neighborhood", "political"]}, {"long_name": "Austin", "short_name": "Austin", "types": ["locality", "political"]}, {"long_name": "Travis County", "short_name": "Travis County", "types": ["administrative_area_level_2", "political"]}, {"long_name": "Texas", "short_name": "TX", "types": ["administrative_area_level_1", "political"]}, {"long_name": "United States", "short_name": "US", "types": ["country", "political"]}, {"long_name": "78701", "short_name": "78701", "types": ["postal_code"]}], "formatted_address": "200 Congress Avenue, Austin, TX 78701, USA", "types": ["street_address"]}, {"website": "http://barleyswine.com", "name": "Barley Swine", "geometry": {"location": {"lat": 30.2492593, "lng": -97.7684725}, "viewport": {"northeast": {"lat": 30.2506082802915, "lng": -97.76712351970849}, "southwest": {"lat": 30.2479103197085, "lng": -97.76982148029151}}, "location_type": "ROOFTOP"}, "address": "2024 S. Lamar Blvd., Austin, TX 78704", "address_components": [{"long_name": "2024", "short_name": "2024", "types": ["street_number"]}, {"long_name": "South Lamar Boulevard", "short_name": "S Lamar Blvd", "types": ["route"]}, {"long_name": "Zilker", "short_name": "Zilker", "types": ["neighborhood", "political"]}, {"long_name": "Austin", "short_name": "Austin", "types": ["locality", "political"]}, {"long_name": "Travis County", "short_name": "Travis County", "types": ["administrative_area_level_2", "political"]}, {"long_name": "Texas", "short_name": "TX", "types": ["administrative_area_level_1", "political"]}, {"long_name": "United States", "short_name": "US", "types": ["country", "political"]}, {"long_name": "78704", "short_name": "78704", "types": ["postal_code"]}], "formatted_address": "2024 South Lamar Boulevard, Austin, TX 78704, USA", "types": ["street_address"]}, {"website": "http://www.congressaustin.com", "name": "Second Bar + Kitchen", "geometry": {"location": {"lat": 30.26477849999999, "lng": -97.7445517}, "viewport": {"northeast": {"lat": 30.26612748029149, "lng": -97.7432027197085}, "southwest": {"lat": 30.2634295197085, "lng": -97.74590068029151}}, "location_type": "ROOFTOP"}, "partial_match": true, "address": "200 Congress, Austin, TX 78701", "address_components": [{"long_name": "200", "short_name": "200", "types": ["street_number"]}, {"long_name": "Congress Avenue", "short_name": "N Congress Ave", "types": ["route"]}, {"long_name": "Downtown", "short_name": "Downtown", "types": ["neighborhood", "political"]}, {"long_name": "Austin", "short_name": "Austin", "types": ["locality", "political"]}, {"long_name": "Travis County", "short_name": "Travis County", "types": ["administrative_area_level_2", "political"]}, {"long_name": "Texas", "short_name": "TX", "types": ["administrative_area_level_1", "political"]}, {"long_name": "United States", "short_name": "US", "types": ["country", "political"]}, {"long_name": "78701", "short_name": "78701", "types": ["postal_code"]}], "formatted_address": "200 Congress Avenue, Austin, TX 78701, USA", "types": ["street_address"]}, {"website": "", "name": "Veracruz All Natural", "geometry": {"location": {"lat": 30.2579162, "lng": -97.7260117}, "viewport": {"northeast": {"lat": 30.2592651802915, "lng": -97.72466271970849}, "southwest": {"lat": 30.2565672197085, "lng": -97.72736068029151}}, "location_type": "ROOFTOP"}, "partial_match": true, "address": "1704 East Cesar Chavez, Austin, TX", "address_components": [{"long_name": "1704", "short_name": "1704", "types": ["street_number"]}, {"long_name": "East Cesar Chavez Street", "short_name": "E Cesar Chavez St", "types": ["route"]}, {"long_name": "East Cesar Chavez", "short_name": "East Cesar Chavez", "types": ["neighborhood", "political"]}, {"long_name": "Austin", "short_name": "Austin", "types": ["locality", "political"]}, {"long_name": "Travis County", "short_name": "Travis County", "types": ["administrative_area_level_2", "political"]}, {"long_name": "Texas", "short_name": "TX", "types": ["administrative_area_level_1", "political"]}, {"long_name": "United States", "short_name": "US", "types": ["country", "political"]}, {"long_name": "78702", "short_name": "78702", "types": ["postal_code"]}], "formatted_address": "1704 East Cesar Chavez Street, Austin, TX 78702, USA", "types": ["street_address"]}, {"website": "http://barleyswine.com", "name": "Barley Swine", "geometry": {"location": {"lat": 30.2492593, "lng": -97.7684725}, "viewport": {"northeast": {"lat": 30.2506082802915, "lng": -97.76712351970849}, "southwest": {"lat": 30.2479103197085, "lng": -97.76982148029151}}, "location_type": "ROOFTOP"}, "address": "2024 S. Lamar Blvd., Austin, TX 78704", "address_components": [{"long_name": "2024", "short_name": "2024", "types": ["street_number"]}, {"long_name": "South Lamar Boulevard", "short_name": "S Lamar Blvd", "types": ["route"]}, {"long_name": "Zilker", "short_name": "Zilker", "types": ["neighborhood", "political"]}, {"long_name": "Austin", "short_name": "Austin", "types": ["locality", "political"]}, {"long_name": "Travis County", "short_name": "Travis County", "types": ["administrative_area_level_2", "political"]}, {"long_name": "Texas", "short_name": "TX", "types": ["administrative_area_level_1", "political"]}, {"long_name": "United States", "short_name": "US", "types": ["country", "political"]}, {"long_name": "78704", "short_name": "78704", "types": ["postal_code"]}], "formatted_address": "2024 South Lamar Boulevard, Austin, TX 78704, USA", "types": ["street_address"]}, {"website": "", "name": "Veracruz All Natural", "geometry": {"location": {"lat": 30.2579162, "lng": -97.7260117}, "viewport": {"northeast": {"lat": 30.2592651802915, "lng": -97.72466271970849}, "southwest": {"lat": 30.2565672197085, "lng": -97.72736068029151}}, "location_type": "ROOFTOP"}, "partial_match": true, "address": "1704 East Cesar Chavez, Austin, TX", "address_components": [{"long_name": "1704", "short_name": "1704", "types": ["street_number"]}, {"long_name": "East Cesar Chavez Street", "short_name": "E Cesar Chavez St", "types": ["route"]}, {"long_name": "East Cesar Chavez", "short_name": "East Cesar Chavez", "types": ["neighborhood", "political"]}, {"long_name": "Austin", "short_name": "Austin", "types": ["locality", "political"]}, {"long_name": "Travis County", "short_name": "Travis County", "types": ["administrative_area_level_2", "political"]}, {"long_name": "Texas", "short_name": "TX", "types": ["administrative_area_level_1", "political"]}, {"long_name": "United States", "short_name": "US", "types": ["country", "political"]}, {"long_name": "78702", "short_name": "78702", "types": ["postal_code"]}], "formatted_address": "1704 East Cesar Chavez Street, Austin, TX 78702, USA", "types": ["street_address"]}, {"website": "", "name": "Lenoir Austin", "geometry": {"location": {"lat": 30.2468751, "lng": -97.7559271}, "viewport": {"northeast": {"lat": 30.2482240802915, "lng": -97.7545781197085}, "southwest": {"lat": 30.2455261197085, "lng": -97.7572760802915}}, "location_type": "ROOFTOP"}, "address": "1807 S 1st St, Austin, TX 78704", "address_components": [{"long_name": "1807", "short_name": "1807", "types": ["street_number"]}, {"long_name": "South 1st Street", "short_name": "S 1st St", "types": ["route"]}, {"long_name": "South Congress", "short_name": "South Congress", "types": ["neighborhood", "political"]}, {"long_name": "Austin", "short_name": "Austin", "types": ["locality", "political"]}, {"long_name": "Travis County", "short_name": "Travis County", "types": ["administrative_area_level_2", "political"]}, {"long_name": "Texas", "short_name": "TX", "types": ["administrative_area_level_1", "political"]}, {"long_name": "United States", "short_name": "US", "types": ["country", "political"]}, {"long_name": "78704", "short_name": "78704", "types": ["postal_code"]}], "formatted_address": "1807 South 1st Street, Austin, TX 78704, USA", "types": ["street_address"]}, {"website": "", "name": "Lenoir Austin", "geometry": {"location": {"lat": 30.2468751, "lng": -97.7559271}, "viewport": {"northeast": {"lat": 30.2482240802915, "lng": -97.7545781197085}, "southwest": {"lat": 30.2455261197085, "lng": -97.7572760802915}}, "location_type": "ROOFTOP"}, "address": "1807 S 1st St, Austin, TX 78704", "address_components": [{"long_name": "1807", "short_name": "1807", "types": ["street_number"]}, {"long_name": "South 1st Street", "short_name": "S 1st St", "types": ["route"]}, {"long_name": "South Congress", "short_name": "South Congress", "types": ["neighborhood", "political"]}, {"long_name": "Austin", "short_name": "Austin", "types": ["locality", "political"]}, {"long_name": "Travis County", "short_name": "Travis County", "types": ["administrative_area_level_2", "political"]}, {"long_name": "Texas", "short_name": "TX", "types": ["administrative_area_level_1", "political"]}, {"long_name": "United States", "short_name": "US", "types": ["country", "political"]}, {"long_name": "78704", "short_name": "78704", "types": ["postal_code"]}], "formatted_address": "1807 South 1st Street, Austin, TX 78704, USA", "types": ["street_address"]}, {"website": "", "name": "Tamale House East", "geometry": {"location": {"lat": 30.2614968, "lng": -97.7243622}, "viewport": {"northeast": {"lat": 30.2628457802915, "lng": -97.7230132197085}, "southwest": {"lat": 30.2601478197085, "lng": -97.72571118029151}}, "location_type": "ROOFTOP"}, "address": "1707 E 6th St, Austin, TX 78702", "address_components": [{"long_name": "1707", "short_name": "1707", "types": ["street_number"]}, {"long_name": "East 6th Street", "short_name": "E 6th St", "types": ["route"]}, {"long_name": "East Cesar Chavez", "short_name": "East Cesar Chavez", "types": ["neighborhood", "political"]}, {"long_name": "Austin", "short_name": "Austin", "types": ["locality", "political"]}, {"long_name": "Travis County", "short_name": "Travis County", "types": ["administrative_area_level_2", "political"]}, {"long_name": "Texas", "short_name": "TX", "types": ["administrative_area_level_1", "political"]}, {"long_name": "United States", "short_name": "US", "types": ["country", "political"]}, {"long_name": "78702", "short_name": "78702", "types": ["postal_code"]}], "formatted_address": "1707 East 6th Street, Austin, TX 78702, USA", "types": ["street_address"]}, {"website": "", "name": "Tamale House East", "geometry": {"location": {"lat": 30.2614968, "lng": -97.7243622}, "viewport": {"northeast": {"lat": 30.2628457802915, "lng": -97.7230132197085}, "southwest": {"lat": 30.2601478197085, "lng": -97.72571118029151}}, "location_type": "ROOFTOP"}, "address": "1707 E 6th St, Austin, TX 78702", "address_components": [{"long_name": "1707", "short_name": "1707", "types": ["street_number"]}, {"long_name": "East 6th Street", "short_name": "E 6th St", "types": ["route"]}, {"long_name": "East Cesar Chavez", "short_name": "East Cesar Chavez", "types": ["neighborhood", "political"]}, {"long_name": "Austin", "short_name": "Austin", "types": ["locality", "political"]}, {"long_name": "Travis County", "short_name": "Travis County", "types": ["administrative_area_level_2", "political"]}, {"long_name": "Texas", "short_name": "TX", "types": ["administrative_area_level_1", "political"]}, {"long_name": "United States", "short_name": "US", "types": ["country", "political"]}, {"long_name": "78702", "short_name": "78702", "types": ["postal_code"]}], "formatted_address": "1707 East 6th Street, Austin, TX 78702, USA", "types": ["street_address"]}, {"website": "https://www.facebook.com/labbq78704", "name": "La Barbecue Cuisine Texicana", "geometry": {"location": {"lat": 30.2644995, "lng": -97.7302759}, "viewport": {"northeast": {"lat": 30.2658484802915, "lng": -97.7289269197085}, "southwest": {"lat": 30.2631505197085, "lng": -97.7316248802915}}, "location_type": "ROOFTOP"}, "address": "1200 East 6th Street, Austin, TX 78702", "address_components": [{"long_name": "1200", "short_name": "1200", "types": ["street_number"]}, {"long_name": "East 6th Street", "short_name": "E 6th St", "types": ["route"]}, {"long_name": "East Cesar Chavez", "short_name": "East Cesar Chavez", "types": ["neighborhood", "political"]}, {"long_name": "Austin", "short_name": "Austin", "types": ["locality", "political"]}, {"long_name": "Travis County", "short_name": "Travis County", "types": ["administrative_area_level_2", "political"]}, {"long_name": "Texas", "short_name": "TX", "types": ["administrative_area_level_1", "political"]}, {"long_name": "United States", "short_name": "US", "types": ["country", "political"]}, {"long_name": "78702", "short_name": "78702", "types": ["postal_code"]}], "formatted_address": "1200 East 6th Street, Austin, TX 78702, USA", "types": ["street_address"]}, {"website": "http://clarksoysterbar.com", "name": "Clark's Oyster Bar", "geometry": {"location": {"lat": 30.2730097, "lng": -97.7572433}, "viewport": {"northeast": {"lat": 30.2743586802915, "lng": -97.75589431970849}, "southwest": {"lat": 30.2716607197085, "lng": -97.7585922802915}}, "location_type": "ROOFTOP"}, "address": "1200 W 6th St, Austin, TX 78703", "address_components": [{"long_name": "1200", "short_name": "1200", "types": ["street_number"]}, {"long_name": "West 6th Street", "short_name": "W 6th St", "types": ["route"]}, {"long_name": "Austin", "short_name": "Austin", "types": ["locality", "political"]}, {"long_name": "Travis County", "short_name": "Travis County", "types": ["administrative_area_level_2", "political"]}, {"long_name": "Texas", "short_name": "TX", "types": ["administrative_area_level_1", "political"]}, {"long_name": "United States", "short_name": "US", "types": ["country", "political"]}, {"long_name": "78703", "short_name": "78703", "types": ["postal_code"]}], "formatted_address": "1200 West 6th Street, Austin, TX 78703, USA", "types": ["street_address"]}, {"website": "https://www.facebook.com/labbq78704", "name": "La Barbecue Cuisine Texicana", "geometry": {"location": {"lat": 30.2644995, "lng": -97.7302759}, "viewport": {"northeast": {"lat": 30.2658484802915, "lng": -97.7289269197085}, "southwest": {"lat": 30.2631505197085, "lng": -97.7316248802915}}, "location_type": "ROOFTOP"}, "address": "1200 East 6th Street, Austin, TX 78702", "address_components": [{"long_name": "1200", "short_name": "1200", "types": ["street_number"]}, {"long_name": "East 6th Street", "short_name": "E 6th St", "types": ["route"]}, {"long_name": "East Cesar Chavez", "short_name": "East Cesar Chavez", "types": ["neighborhood", "political"]}, {"long_name": "Austin", "short_name": "Austin", "types": ["locality", "political"]}, {"long_name": "Travis County", "short_name": "Travis County", "types": ["administrative_area_level_2", "political"]}, {"long_name": "Texas", "short_name": "TX", "types": ["administrative_area_level_1", "political"]}, {"long_name": "United States", "short_name": "US", "types": ["country", "political"]}, {"long_name": "78702", "short_name": "78702", "types": ["postal_code"]}], "formatted_address": "1200 East 6th Street, Austin, TX 78702, USA", "types": ["street_address"]}, {"website": "http://clarksoysterbar.com", "name": "Clark's Oyster Bar", "geometry": {"location": {"lat": 30.2730097, "lng": -97.7572433}, "viewport": {"northeast": {"lat": 30.2743586802915, "lng": -97.75589431970849}, "southwest": {"lat": 30.2716607197085, "lng": -97.7585922802915}}, "location_type": "ROOFTOP"}, "address": "1200 W 6th St, Austin, TX 78703", "address_components": [{"long_name": "1200", "short_name": "1200", "types": ["street_number"]}, {"long_name": "West 6th Street", "short_name": "W 6th St", "types": ["route"]}, {"long_name": "Austin", "short_name": "Austin", "types": ["locality", "political"]}, {"long_name": "Travis County", "short_name": "Travis County", "types": ["administrative_area_level_2", "political"]}, {"long_name": "Texas", "short_name": "TX", "types": ["administrative_area_level_1", "political"]}, {"long_name": "United States", "short_name": "US", "types": ["country", "political"]}, {"long_name": "78703", "short_name": "78703", "types": ["postal_code"]}], "formatted_address": "1200 West 6th Street, Austin, TX 78703, USA", "types": ["street_address"]}, {"website": "http://www.easytigeraustin.com/", "name": "Easy Tiger", "geometry": {"location": {"lat": 30.2659105, "lng": -97.7356475}, "viewport": {"northeast": {"lat": 30.2672594802915, "lng": -97.7342985197085}, "southwest": {"lat": 30.2645615197085, "lng": -97.73699648029151}}, "location_type": "ROOFTOP"}, "address": "709 E 6th St, Austin, TX 78701", "address_components": [{"long_name": "709", "short_name": "709", "types": ["street_number"]}, {"long_name": "East 6th Street", "short_name": "E 6th St", "types": ["route"]}, {"long_name": "Downtown", "short_name": "Downtown", "types": ["neighborhood", "political"]}, {"long_name": "Austin", "short_name": "Austin", "types": ["locality", "political"]}, {"long_name": "Travis County", "short_name": "Travis County", "types": ["administrative_area_level_2", "political"]}, {"long_name": "Texas", "short_name": "TX", "types": ["administrative_area_level_1", "political"]}, {"long_name": "United States", "short_name": "US", "types": ["country", "political"]}, {"long_name": "78701", "short_name": "78701", "types": ["postal_code"]}], "formatted_address": "709 East 6th Street, Austin, TX 78701, USA", "types": ["street_address"]}, {"website": "http://www.nubianqueenlolas.com", "name": "Nubian Queen Lola Cajun", "geometry": {"location": {"lat": 30.26952249999999, "lng": -97.71920449999999}, "viewport": {"northeast": {"lat": 30.27087148029149, "lng": -97.71785551970848}, "southwest": {"lat": 30.2681735197085, "lng": -97.72055348029149}}, "location_type": "ROOFTOP"}, "address": "1815 Rosewood Ave, Austin, TX 78702", "address_components": [{"long_name": "1815", "short_name": "1815", "types": ["street_number"]}, {"long_name": "Rosewood Avenue", "short_name": "Rosewood Ave", "types": ["route"]}, {"long_name": "Austin", "short_name": "Austin", "types": ["locality", "political"]}, {"long_name": "Texas", "short_name": "TX", "types": ["administrative_area_level_1", "political"]}, {"long_name": "United States", "short_name": "US", "types": ["country", "political"]}, {"long_name": "78702", "short_name": "78702", "types": ["postal_code"]}], "formatted_address": "1815 Rosewood Avenue, Austin, TX 78702, USA", "types": ["street_address"]}, {"website": "http://www.easytigeraustin.com/", "name": "Easy Tiger", "geometry": {"location": {"lat": 30.2659105, "lng": -97.7356475}, "viewport": {"northeast": {"lat": 30.2672594802915, "lng": -97.7342985197085}, "southwest": {"lat": 30.2645615197085, "lng": -97.73699648029151}}, "location_type": "ROOFTOP"}, "address": "709 E 6th St, Austin, TX 78701", "address_components": [{"long_name": "709", "short_name": "709", "types": ["street_number"]}, {"long_name": "East 6th Street", "short_name": "E 6th St", "types": ["route"]}, {"long_name": "Downtown", "short_name": "Downtown", "types": ["neighborhood", "political"]}, {"long_name": "Austin", "short_name": "Austin", "types": ["locality", "political"]}, {"long_name": "Travis County", "short_name": "Travis County", "types": ["administrative_area_level_2", "political"]}, {"long_name": "Texas", "short_name": "TX", "types": ["administrative_area_level_1", "political"]}, {"long_name": "United States", "short_name": "US", "types": ["country", "political"]}, {"long_name": "78701", "short_name": "78701", "types": ["postal_code"]}], "formatted_address": "709 East 6th Street, Austin, TX 78701, USA", "types": ["street_address"]}, {"website": "http://winkrestaurant.com", "name": "Wink", "geometry": {"location": {"lat": 30.2757662, "lng": -97.7524833}, "viewport": {"northeast": {"lat": 30.2771151802915, "lng": -97.75113431970848}, "southwest": {"lat": 30.2744172197085, "lng": -97.75383228029149}}, "location_type": "ROOFTOP"}, "address": "1014 N. Lamar Blvd., Austin, TX 78703", "address_components": [{"long_name": "1014", "short_name": "1014", "types": ["street_number"]}, {"long_name": "North Lamar Boulevard", "short_name": "N Lamar Blvd", "types": ["route"]}, {"long_name": "Austin", "short_name": "Austin", "types": ["locality", "political"]}, {"long_name": "Travis County", "short_name": "Travis County", "types": ["administrative_area_level_2", "political"]}, {"long_name": "Texas", "short_name": "TX", "types": ["administrative_area_level_1", "political"]}, {"long_name": "United States", "short_name": "US", "types": ["country", "political"]}, {"long_name": "78703", "short_name": "78703", "types": ["postal_code"]}], "formatted_address": "1014 North Lamar Boulevard, Austin, TX 78703, USA", "types": ["street_address"]}, {"website": "http://www.nubianqueenlolas.com", "name": "Nubian Queen Lola Cajun", "geometry": {"location": {"lat": 30.26952249999999, "lng": -97.71920449999999}, "viewport": {"northeast": {"lat": 30.27087148029149, "lng": -97.71785551970848}, "southwest": {"lat": 30.2681735197085, "lng": -97.72055348029149}}, "location_type": "ROOFTOP"}, "address": "1815 Rosewood Ave, Austin, TX 78702", "address_components": [{"long_name": "1815", "short_name": "1815", "types": ["street_number"]}, {"long_name": "Rosewood Avenue", "short_name": "Rosewood Ave", "types": ["route"]}, {"long_name": "Austin", "short_name": "Austin", "types": ["locality", "political"]}, {"long_name": "Texas", "short_name": "TX", "types": ["administrative_area_level_1", "political"]}, {"long_name": "United States", "short_name": "US", "types": ["country", "political"]}, {"long_name": "78702", "short_name": "78702", "types": ["postal_code"]}], "formatted_address": "1815 Rosewood Avenue, Austin, TX 78702, USA", "types": ["street_address"]}, {"website": "http://epicerieaustin.com", "name": "Epicerie", "geometry": {"location": {"lat": 30.324526, "lng": -97.743677}, "viewport": {"northeast": {"lat": 30.3258749802915, "lng": -97.74232801970851}, "southwest": {"lat": 30.3231770197085, "lng": -97.74502598029152}}, "location_type": "ROOFTOP"}, "address": "2307 Hancock Dr, Austin, TX 78756", "address_components": [{"long_name": "2307", "short_name": "2307", "types": ["street_number"]}, {"long_name": "Hancock Drive", "short_name": "Hancock Dr", "types": ["route"]}, {"long_name": "Rosedale", "short_name": "Rosedale", "types": ["neighborhood", "political"]}, {"long_name": "Austin", "short_name": "Austin", "types": ["locality", "political"]}, {"long_name": "Travis County", "short_name": "Travis County", "types": ["administrative_area_level_2", "political"]}, {"long_name": "Texas", "short_name": "TX", "types": ["administrative_area_level_1", "political"]}, {"long_name": "United States", "short_name": "US", "types": ["country", "political"]}, {"long_name": "78756", "short_name": "78756", "types": ["postal_code"]}], "formatted_address": "2307 Hancock Drive, Austin, TX 78756, USA", "types": ["street_address"]}, {"website": "http://winkrestaurant.com", "name": "Wink", "geometry": {"location": {"lat": 30.2757662, "lng": -97.7524833}, "viewport": {"northeast": {"lat": 30.2771151802915, "lng": -97.75113431970848}, "southwest": {"lat": 30.2744172197085, "lng": -97.75383228029149}}, "location_type": "ROOFTOP"}, "address": "1014 N. Lamar Blvd., Austin, TX 78703", "address_components": [{"long_name": "1014", "short_name": "1014", "types": ["street_number"]}, {"long_name": "North Lamar Boulevard", "short_name": "N Lamar Blvd", "types": ["route"]}, {"long_name": "Austin", "short_name": "Austin", "types": ["locality", "political"]}, {"long_name": "Travis County", "short_name": "Travis County", "types": ["administrative_area_level_2", "political"]}, {"long_name": "Texas", "short_name": "TX", "types": ["administrative_area_level_1", "political"]}, {"long_name": "United States", "short_name": "US", "types": ["country", "political"]}, {"long_name": "78703", "short_name": "78703", "types": ["postal_code"]}], "formatted_address": "1014 North Lamar Boulevard, Austin, TX 78703, USA", "types": ["street_address"]}, {"website": "http://epicerieaustin.com", "name": "Epicerie", "geometry": {"location": {"lat": 30.324526, "lng": -97.743677}, "viewport": {"northeast": {"lat": 30.3258749802915, "lng": -97.74232801970851}, "southwest": {"lat": 30.3231770197085, "lng": -97.74502598029152}}, "location_type": "ROOFTOP"}, "address": "2307 Hancock Dr, Austin, TX 78756", "address_components": [{"long_name": "2307", "short_name": "2307", "types": ["street_number"]}, {"long_name": "Hancock Drive", "short_name": "Hancock Dr", "types": ["route"]}, {"long_name": "Rosedale", "short_name": "Rosedale", "types": ["neighborhood", "political"]}, {"long_name": "Austin", "short_name": "Austin", "types": ["locality", "political"]}, {"long_name": "Travis County", "short_name": "Travis County", "types": ["administrative_area_level_2", "political"]}, {"long_name": "Texas", "short_name": "TX", "types": ["administrative_area_level_1", "political"]}, {"long_name": "United States", "short_name": "US", "types": ["country", "political"]}, {"long_name": "78756", "short_name": "78756", "types": ["postal_code"]}], "formatted_address": "2307 Hancock Drive, Austin, TX 78756, USA", "types": ["street_address"]}, {"website": "http://www.tacodeli.com", "name": "TacoDeli", "geometry": {"location": {"lat": 30.2584411, "lng": -97.7876398}, "viewport": {"northeast": {"lat": 30.2597900802915, "lng": -97.7862908197085}, "southwest": {"lat": 30.2570921197085, "lng": -97.7889887802915}}, "location_type": "ROOFTOP"}, "partial_match": true, "address": "1500B Spyglass Dr, Austin, TX 78746", "address_components": [{"long_name": "1500", "short_name": "1500", "types": ["street_number"]}, {"long_name": "Spyglass Drive", "short_name": "Spyglass Dr", "types": ["route"]}, {"long_name": "Barton Hills", "short_name": "Barton Hills", "types": ["neighborhood", "political"]}, {"long_name": "Austin", "short_name": "Austin", "types": ["locality", "political"]}, {"long_name": "Travis County", "short_name": "Travis County", "types": ["administrative_area_level_2", "political"]}, {"long_name": "Texas", "short_name": "TX", "types": ["administrative_area_level_1", "political"]}, {"long_name": "United States", "short_name": "US", "types": ["country", "political"]}, {"long_name": "78746", "short_name": "78746", "types": ["postal_code"]}], "formatted_address": "1500 Spyglass Drive, Austin, TX 78746, USA", "types": ["street_address"]}, {"website": "http://www.bluedahliabistro.com", "name": "Blue Dahlia Bistro", "geometry": {"location": {"lat": 30.2688053, "lng": -97.7287345}, "viewport": {"northeast": {"lat": 30.2701542802915, "lng": -97.72738551970849}, "southwest": {"lat": 30.2674563197085, "lng": -97.7300834802915}}, "location_type": "ROOFTOP"}, "address": "1115 E 11th St, Austin, TX 78702", "address_components": [{"long_name": "1115", "short_name": "1115", "types": ["street_number"]}, {"long_name": "East 11th Street", "short_name": "E 11th St", "types": ["route"]}, {"long_name": "Central East Austin", "short_name": "Central East Austin", "types": ["neighborhood", "political"]}, {"long_name": "Austin", "short_name": "Austin", "types": ["locality", "political"]}, {"long_name": "Travis County", "short_name": "Travis County", "types": ["administrative_area_level_2", "political"]}, {"long_name": "Texas", "short_name": "TX", "types": ["administrative_area_level_1", "political"]}, {"long_name": "United States", "short_name": "US", "types": ["country", "political"]}, {"long_name": "78702", "short_name": "78702", "types": ["postal_code"]}], "formatted_address": "1115 East 11th Street, Austin, TX 78702, USA", "types": ["street_address"]}, {"website": "http://www.fondasanmiguel.com", "name": "Fonda San Miguel", "geometry": {"location": {"lat": 30.3255041, "lng": -97.74346539999999}, "viewport": {"northeast": {"lat": 30.3268530802915, "lng": -97.74211641970848}, "southwest": {"lat": 30.3241551197085, "lng": -97.7448143802915}}, "location_type": "ROOFTOP"}, "address": "2330 W North Loop Blvd, Austin, TX 78756", "address_components": [{"long_name": "2330", "short_name": "2330", "types": ["street_number"]}, {"long_name": "West North Loop Boulevard", "short_name": "W North Loop Blvd", "types": ["route"]}, {"long_name": "Allandale", "short_name": "Allandale", "types": ["neighborhood", "political"]}, {"long_name": "Austin", "short_name": "Austin", "types": ["locality", "political"]}, {"long_name": "Travis County", "short_name": "Travis County", "types": ["administrative_area_level_2", "political"]}, {"long_name": "Texas", "short_name": "TX", "types": ["administrative_area_level_1", "political"]}, {"long_name": "United States", "short_name": "US", "types": ["country", "political"]}, {"long_name": "78756", "short_name": "78756", "types": ["postal_code"]}], "formatted_address": "2330 West North Loop Boulevard, Austin, TX 78756, USA", "types": ["street_address"]}, {"website": "http://swiftsattic.com", "name": "Swift's Attic", "geometry": {"location": {"lat": 30.2655921, "lng": -97.7433136}, "viewport": {"northeast": {"lat": 30.2669410802915, "lng": -97.7419646197085}, "southwest": {"lat": 30.2642431197085, "lng": -97.7446625802915}}, "location_type": "ROOFTOP"}, "address": "315 Congress Ave, Austin, TX 78701", "address_components": [{"long_name": "315", "short_name": "315", "types": ["street_number"]}, {"long_name": "Congress Avenue", "short_name": "N Congress Ave", "types": ["route"]}, {"long_name": "Downtown", "short_name": "Downtown", "types": ["neighborhood", "political"]}, {"long_name": "Austin", "short_name": "Austin", "types": ["locality", "political"]}, {"long_name": "Travis County", "short_name": "Travis County", "types": ["administrative_area_level_2", "political"]}, {"long_name": "Texas", "short_name": "TX", "types": ["administrative_area_level_1", "political"]}, {"long_name": "United States", "short_name": "US", "types": ["country", "political"]}, {"long_name": "78701", "short_name": "78701", "types": ["postal_code"]}], "formatted_address": "315 Congress Avenue, Austin, TX 78701, USA", "types": ["street_address"]}, {"website": "http://www.bufalinapizza.com/", "name": "Bufalina", "geometry": {"location": {"lat": 30.25842939999999, "lng": -97.72878999999999}, "viewport": {"northeast": {"lat": 30.25977838029149, "lng": -97.72744101970848}, "southwest": {"lat": 30.2570804197085, "lng": -97.7301389802915}}, "location_type": "ROOFTOP"}, "address": "1519 E Cesar Chavez St, Austin, TX 78702", "address_components": [{"long_name": "1519", "short_name": "1519", "types": ["street_number"]}, {"long_name": "East Cesar Chavez Street", "short_name": "E Cesar Chavez St", "types": ["route"]}, {"long_name": "East Cesar Chavez", "short_name": "East Cesar Chavez", "types": ["neighborhood", "political"]}, {"long_name": "Austin", "short_name": "Austin", "types": ["locality", "political"]}, {"long_name": "Travis County", "short_name": "Travis County", "types": ["administrative_area_level_2", "political"]}, {"long_name": "Texas", "short_name": "TX", "types": ["administrative_area_level_1", "political"]}, {"long_name": "United States", "short_name": "US", "types": ["country", "political"]}, {"long_name": "78702", "short_name": "78702", "types": ["postal_code"]}], "formatted_address": "1519 East Cesar Chavez Street, Austin, TX 78702, USA", "types": ["street_address"]}, {"website": "http://www.tacodeli.com", "name": "TacoDeli", "geometry": {"location": {"lat": 30.2584411, "lng": -97.7876398}, "viewport": {"northeast": {"lat": 30.2597900802915, "lng": -97.7862908197085}, "southwest": {"lat": 30.2570921197085, "lng": -97.7889887802915}}, "location_type": "ROOFTOP"}, "partial_match": true, "address": "1500B Spyglass Dr, Austin, TX 78746", "address_components": [{"long_name": "1500", "short_name": "1500", "types": ["street_number"]}, {"long_name": "Spyglass Drive", "short_name": "Spyglass Dr", "types": ["route"]}, {"long_name": "Barton Hills", "short_name": "Barton Hills", "types": ["neighborhood", "political"]}, {"long_name": "Austin", "short_name": "Austin", "types": ["locality", "political"]}, {"long_name": "Travis County", "short_name": "Travis County", "types": ["administrative_area_level_2", "political"]}, {"long_name": "Texas", "short_name": "TX", "types": ["administrative_area_level_1", "political"]}, {"long_name": "United States", "short_name": "US", "types": ["country", "political"]}, {"long_name": "78746", "short_name": "78746", "types": ["postal_code"]}], "formatted_address": "1500 Spyglass Drive, Austin, TX 78746, USA", "types": ["street_address"]}, {"website": "http://www.bluedahliabistro.com", "name": "Blue Dahlia Bistro", "geometry": {"location": {"lat": 30.2688053, "lng": -97.7287345}, "viewport": {"northeast": {"lat": 30.2701542802915, "lng": -97.72738551970849}, "southwest": {"lat": 30.2674563197085, "lng": -97.7300834802915}}, "location_type": "ROOFTOP"}, "address": "1115 E 11th St, Austin, TX 78702", "address_components": [{"long_name": "1115", "short_name": "1115", "types": ["street_number"]}, {"long_name": "East 11th Street", "short_name": "E 11th St", "types": ["route"]}, {"long_name": "Central East Austin", "short_name": "Central East Austin", "types": ["neighborhood", "political"]}, {"long_name": "Austin", "short_name": "Austin", "types": ["locality", "political"]}, {"long_name": "Travis County", "short_name": "Travis County", "types": ["administrative_area_level_2", "political"]}, {"long_name": "Texas", "short_name": "TX", "types": ["administrative_area_level_1", "political"]}, {"long_name": "United States", "short_name": "US", "types": ["country", "political"]}, {"long_name": "78702", "short_name": "78702", "types": ["postal_code"]}], "formatted_address": "1115 East 11th Street, Austin, TX 78702, USA", "types": ["street_address"]}, {"website": "http://www.quiaustin.com", "name": "QUI Restaurant", "geometry": {"location": {"lat": 30.2631993, "lng": -97.7263395}, "viewport": {"northeast": {"lat": 30.2645482802915, "lng": -97.72499051970848}, "southwest": {"lat": 30.2618503197085, "lng": -97.7276884802915}}, "location_type": "ROOFTOP"}, "address": "1600 E 6th St, Austin, TX 78702", "address_components": [{"long_name": "1600", "short_name": "1600", "types": ["street_number"]}, {"long_name": "East 6th Street", "short_name": "E 6th St", "types": ["route"]}, {"long_name": "East Cesar Chavez", "short_name": "East Cesar Chavez", "types": ["neighborhood", "political"]}, {"long_name": "Austin", "short_name": "Austin", "types": ["locality", "political"]}, {"long_name": "Travis County", "short_name": "Travis County", "types": ["administrative_area_level_2", "political"]}, {"long_name": "Texas", "short_name": "TX", "types": ["administrative_area_level_1", "political"]}, {"long_name": "United States", "short_name": "US", "types": ["country", "political"]}, {"long_name": "78702", "short_name": "78702", "types": ["postal_code"]}], "formatted_address": "1600 East 6th Street, Austin, TX 78702, USA", "types": ["street_address"]}, {"website": "http://www.saltandtime.com/", "name": "Salt & Time", "geometry": {"location": {"lat": 30.2626699, "lng": -97.72102819999999}, "viewport": {"northeast": {"lat": 30.2640188802915, "lng": -97.71967921970848}, "southwest": {"lat": 30.2613209197085, "lng": -97.7223771802915}}, "location_type": "ROOFTOP"}, "address": "1912 E 7th St, Austin, TX 78702", "address_components": [{"long_name": "1912", "short_name": "1912", "types": ["street_number"]}, {"long_name": "East 7th Street", "short_name": "E 7th St", "types": ["route"]}, {"long_name": "Blackshear-Prospect Hill", "short_name": "Blackshear-Prospect Hill", "types": ["neighborhood", "political"]}, {"long_name": "Austin", "short_name": "Austin", "types": ["locality", "political"]}, {"long_name": "Travis County", "short_name": "Travis County", "types": ["administrative_area_level_2", "political"]}, {"long_name": "Texas", "short_name": "TX", "types": ["administrative_area_level_1", "political"]}, {"long_name": "United States", "short_name": "US", "types": ["country", "political"]}, {"long_name": "78702", "short_name": "78702", "types": ["postal_code"]}], "formatted_address": "1912 East 7th Street, Austin, TX 78702, USA", "types": ["street_address"]}, {"website": "http://swiftsattic.com", "name": "Swift's Attic", "geometry": {"location": {"lat": 30.2655921, "lng": -97.7433136}, "viewport": {"northeast": {"lat": 30.2669410802915, "lng": -97.7419646197085}, "southwest": {"lat": 30.2642431197085, "lng": -97.7446625802915}}, "location_type": "ROOFTOP"}, "address": "315 Congress Ave, Austin, TX 78701", "address_components": [{"long_name": "315", "short_name": "315", "types": ["street_number"]}, {"long_name": "Congress Avenue", "short_name": "N Congress Ave", "types": ["route"]}, {"long_name": "Downtown", "short_name": "Downtown", "types": ["neighborhood", "political"]}, {"long_name": "Austin", "short_name": "Austin", "types": ["locality", "political"]}, {"long_name": "Travis County", "short_name": "Travis County", "types": ["administrative_area_level_2", "political"]}, {"long_name": "Texas", "short_name": "TX", "types": ["administrative_area_level_1", "political"]}, {"long_name": "United States", "short_name": "US", "types": ["country", "political"]}, {"long_name": "78701", "short_name": "78701", "types": ["postal_code"]}], "formatted_address": "315 Congress Avenue, Austin, TX 78701, USA", "types": ["street_address"]}, {"website": "http://www.bufalinapizza.com/", "name": "Bufalina", "geometry": {"location": {"lat": 30.25842939999999, "lng": -97.72878999999999}, "viewport": {"northeast": {"lat": 30.25977838029149, "lng": -97.72744101970848}, "southwest": {"lat": 30.2570804197085, "lng": -97.7301389802915}}, "location_type": "ROOFTOP"}, "address": "1519 E Cesar Chavez St, Austin, TX 78702", "address_components": [{"long_name": "1519", "short_name": "1519", "types": ["street_number"]}, {"long_name": "East Cesar Chavez Street", "short_name": "E Cesar Chavez St", "types": ["route"]}, {"long_name": "East Cesar Chavez", "short_name": "East Cesar Chavez", "types": ["neighborhood", "political"]}, {"long_name": "Austin", "short_name": "Austin", "types": ["locality", "political"]}, {"long_name": "Travis County", "short_name": "Travis County", "types": ["administrative_area_level_2", "political"]}, {"long_name": "Texas", "short_name": "TX", "types": ["administrative_area_level_1", "political"]}, {"long_name": "United States", "short_name": "US", "types": ["country", "political"]}, {"long_name": "78702", "short_name": "78702", "types": ["postal_code"]}], "formatted_address": "1519 East Cesar Chavez Street, Austin, TX 78702, USA", "types": ["street_address"]}, {"website": "http://elmesonaustin.wordpress.com/", "name": "El Mes\u00f3n", "geometry": {"location": {"lat": 30.2489654, "lng": -97.7689554}, "viewport": {"northeast": {"lat": 30.2503143802915, "lng": -97.76760641970849}, "southwest": {"lat": 30.2476164197085, "lng": -97.7703043802915}}, "location_type": "ROOFTOP"}, "address": "2038 S Lamar Blvd, Austin, TX 78704", "address_components": [{"long_name": "2038", "short_name": "2038", "types": ["street_number"]}, {"long_name": "South Lamar Boulevard", "short_name": "S Lamar Blvd", "types": ["route"]}, {"long_name": "Zilker", "short_name": "Zilker", "types": ["neighborhood", "political"]}, {"long_name": "Austin", "short_name": "Austin", "types": ["locality", "political"]}, {"long_name": "Travis County", "short_name": "Travis County", "types": ["administrative_area_level_2", "political"]}, {"long_name": "Texas", "short_name": "TX", "types": ["administrative_area_level_1", "political"]}, {"long_name": "United States", "short_name": "US", "types": ["country", "political"]}, {"long_name": "78704", "short_name": "78704", "types": ["postal_code"]}], "formatted_address": "2038 South Lamar Boulevard, Austin, TX 78704, USA", "types": ["street_address"]}, {"website": "http://www.quiaustin.com", "name": "QUI Restaurant", "geometry": {"location": {"lat": 30.2631993, "lng": -97.7263395}, "viewport": {"northeast": {"lat": 30.2645482802915, "lng": -97.72499051970848}, "southwest": {"lat": 30.2618503197085, "lng": -97.7276884802915}}, "location_type": "ROOFTOP"}, "address": "1600 E 6th St, Austin, TX 78702", "address_components": [{"long_name": "1600", "short_name": "1600", "types": ["street_number"]}, {"long_name": "East 6th Street", "short_name": "E 6th St", "types": ["route"]}, {"long_name": "East Cesar Chavez", "short_name": "East Cesar Chavez", "types": ["neighborhood", "political"]}, {"long_name": "Austin", "short_name": "Austin", "types": ["locality", "political"]}, {"long_name": "Travis County", "short_name": "Travis County", "types": ["administrative_area_level_2", "political"]}, {"long_name": "Texas", "short_name": "TX", "types": ["administrative_area_level_1", "political"]}, {"long_name": "United States", "short_name": "US", "types": ["country", "political"]}, {"long_name": "78702", "short_name": "78702", "types": ["postal_code"]}], "formatted_address": "1600 East 6th Street, Austin, TX 78702, USA", "types": ["street_address"]}, {"website": "http://www.bouldincreek.com", "name": "Bouldin Creek Caf\u00e9", "geometry": {"location": {"lat": 30.2464603, "lng": -97.7567553}, "viewport": {"northeast": {"lat": 30.2478092802915, "lng": -97.7554063197085}, "southwest": {"lat": 30.2451113197085, "lng": -97.7581042802915}}, "location_type": "ROOFTOP"}, "address": "1900 S. 1st St., Austin, TX 78704", "address_components": [{"long_name": "1900", "short_name": "1900", "types": ["street_number"]}, {"long_name": "South 1st Street", "short_name": "S 1st St", "types": ["route"]}, {"long_name": "Bouldin", "short_name": "Bouldin", "types": ["neighborhood", "political"]}, {"long_name": "Austin", "short_name": "Austin", "types": ["locality", "political"]}, {"long_name": "Travis County", "short_name": "Travis County", "types": ["administrative_area_level_2", "political"]}, {"long_name": "Texas", "short_name": "TX", "types": ["administrative_area_level_1", "political"]}, {"long_name": "United States", "short_name": "US", "types": ["country", "political"]}, {"long_name": "78704", "short_name": "78704", "types": ["postal_code"]}], "formatted_address": "1900 South 1st Street, Austin, TX 78704, USA", "types": ["street_address"]}, {"website": "http://www.saltandtime.com/", "name": "Salt & Time", "geometry": {"location": {"lat": 30.2626699, "lng": -97.72102819999999}, "viewport": {"northeast": {"lat": 30.2640188802915, "lng": -97.71967921970848}, "southwest": {"lat": 30.2613209197085, "lng": -97.7223771802915}}, "location_type": "ROOFTOP"}, "address": "1912 E 7th St, Austin, TX 78702", "address_components": [{"long_name": "1912", "short_name": "1912", "types": ["street_number"]}, {"long_name": "East 7th Street", "short_name": "E 7th St", "types": ["route"]}, {"long_name": "Blackshear-Prospect Hill", "short_name": "Blackshear-Prospect Hill", "types": ["neighborhood", "political"]}, {"long_name": "Austin", "short_name": "Austin", "types": ["locality", "political"]}, {"long_name": "Travis County", "short_name": "Travis County", "types": ["administrative_area_level_2", "political"]}, {"long_name": "Texas", "short_name": "TX", "types": ["administrative_area_level_1", "political"]}, {"long_name": "United States", "short_name": "US", "types": ["country", "political"]}, {"long_name": "78702", "short_name": "78702", "types": ["postal_code"]}], "formatted_address": "1912 East 7th Street, Austin, TX 78702, USA", "types": ["street_address"]}, {"website": "http://elmesonaustin.wordpress.com/", "name": "El Mes\u00f3n", "geometry": {"location": {"lat": 30.2489654, "lng": -97.7689554}, "viewport": {"northeast": {"lat": 30.2503143802915, "lng": -97.76760641970849}, "southwest": {"lat": 30.2476164197085, "lng": -97.7703043802915}}, "location_type": "ROOFTOP"}, "address": "2038 S Lamar Blvd, Austin, TX 78704", "address_components": [{"long_name": "2038", "short_name": "2038", "types": ["street_number"]}, {"long_name": "South Lamar Boulevard", "short_name": "S Lamar Blvd", "types": ["route"]}, {"long_name": "Zilker", "short_name": "Zilker", "types": ["neighborhood", "political"]}, {"long_name": "Austin", "short_name": "Austin", "types": ["locality", "political"]}, {"long_name": "Travis County", "short_name": "Travis County", "types": ["administrative_area_level_2", "political"]}, {"long_name": "Texas", "short_name": "TX", "types": ["administrative_area_level_1", "political"]}, {"long_name": "United States", "short_name": "US", "types": ["country", "political"]}, {"long_name": "78704", "short_name": "78704", "types": ["postal_code"]}], "formatted_address": "2038 South Lamar Boulevard, Austin, TX 78704, USA", "types": ["street_address"]}, {"website": "", "name": "Jack Allen's Kitchen", "geometry": {"location": {"lat": 30.2435626, "lng": -97.8826232}, "viewport": {"northeast": {"lat": 30.2449115802915, "lng": -97.8812742197085}, "southwest": {"lat": 30.2422136197085, "lng": -97.88397218029151}}, "location_type": "ROOFTOP"}, "partial_match": true, "address": "7720 W Highway 71, Austin, TX 78735", "address_components": [{"long_name": "7720", "short_name": "7720", "types": ["street_number"]}, {"long_name": "Highway 71", "short_name": "TX-71", "types": ["route"]}, {"long_name": "West Oak Hill", "short_name": "West Oak Hill", "types": ["neighborhood", "political"]}, {"long_name": "Austin", "short_name": "Austin", "types": ["locality", "political"]}, {"long_name": "Travis County", "short_name": "Travis County", "types": ["administrative_area_level_2", "political"]}, {"long_name": "Texas", "short_name": "TX", "types": ["administrative_area_level_1", "political"]}, {"long_name": "United States", "short_name": "US", "types": ["country", "political"]}, {"long_name": "78735", "short_name": "78735", "types": ["postal_code"]}], "formatted_address": "7720 Texas 71, Austin, TX 78735, USA", "types": ["street_address"]}, {"website": "", "name": "Micklethwait Craft Meats", "geometry": {"location": {"lat": 30.2685617, "lng": -97.7251287}, "viewport": {"northeast": {"lat": 30.2699106802915, "lng": -97.72377971970849}, "southwest": {"lat": 30.2672127197085, "lng": -97.72647768029151}}, "location_type": "ROOFTOP"}, "address": "1309 Rosewood Ave, Austin, TX 78702", "address_components": [{"long_name": "1309", "short_name": "1309", "types": ["street_number"]}, {"long_name": "Rosewood Avenue", "short_name": "Rosewood Ave", "types": ["route"]}, {"long_name": "Blackshear-Prospect Hill", "short_name": "Blackshear-Prospect Hill", "types": ["neighborhood", "political"]}, {"long_name": "Austin", "short_name": "Austin", "types": ["locality", "political"]}, {"long_name": "Travis County", "short_name": "Travis County", "types": ["administrative_area_level_2", "political"]}, {"long_name": "Texas", "short_name": "TX", "types": ["administrative_area_level_1", "political"]}, {"long_name": "United States", "short_name": "US", "types": ["country", "political"]}, {"long_name": "78702", "short_name": "78702", "types": ["postal_code"]}], "formatted_address": "1309 Rosewood Avenue, Austin, TX 78702, USA", "types": ["street_address"]}, {"website": "http://www.bouldincreek.com", "name": "Bouldin Creek Caf\u00e9", "geometry": {"location": {"lat": 30.2464603, "lng": -97.7567553}, "viewport": {"northeast": {"lat": 30.2478092802915, "lng": -97.7554063197085}, "southwest": {"lat": 30.2451113197085, "lng": -97.7581042802915}}, "location_type": "ROOFTOP"}, "address": "1900 S. 1st St., Austin, TX 78704", "address_components": [{"long_name": "1900", "short_name": "1900", "types": ["street_number"]}, {"long_name": "South 1st Street", "short_name": "S 1st St", "types": ["route"]}, {"long_name": "Bouldin", "short_name": "Bouldin", "types": ["neighborhood", "political"]}, {"long_name": "Austin", "short_name": "Austin", "types": ["locality", "political"]}, {"long_name": "Travis County", "short_name": "Travis County", "types": ["administrative_area_level_2", "political"]}, {"long_name": "Texas", "short_name": "TX", "types": ["administrative_area_level_1", "political"]}, {"long_name": "United States", "short_name": "US", "types": ["country", "political"]}, {"long_name": "78704", "short_name": "78704", "types": ["postal_code"]}], "formatted_address": "1900 South 1st Street, Austin, TX 78704, USA", "types": ["street_address"]}, {"website": "http://www.currasgrill.com", "name": "Curra's Grill", "geometry": {"location": {"lat": 30.2371222, "lng": -97.7493775}, "viewport": {"northeast": {"lat": 30.2384711802915, "lng": -97.74802851970848}, "southwest": {"lat": 30.2357732197085, "lng": -97.7507264802915}}, "location_type": "ROOFTOP"}, "address": "614 E Oltorf St, Austin, TX 78704", "address_components": [{"long_name": "614", "short_name": "614", "types": ["street_number"]}, {"long_name": "East Oltorf Street", "short_name": "E Oltorf St", "types": ["route"]}, {"long_name": "South Congress", "short_name": "South Congress", "types": ["neighborhood", "political"]}, {"long_name": "Austin", "short_name": "Austin", "types": ["locality", "political"]}, {"long_name": "Travis County", "short_name": "Travis County", "types": ["administrative_area_level_2", "political"]}, {"long_name": "Texas", "short_name": "TX", "types": ["administrative_area_level_1", "political"]}, {"long_name": "United States", "short_name": "US", "types": ["country", "political"]}, {"long_name": "78704", "short_name": "78704", "types": ["postal_code"]}], "formatted_address": "614 East Oltorf Street, Austin, TX 78704, USA", "types": ["street_address"]}, {"website": "http://www.swayaustin.com", "name": "Sway Thai", "geometry": {"location": {"lat": 30.250129, "lng": -97.754559}, "viewport": {"northeast": {"lat": 30.25147798029149, "lng": -97.75321001970849}, "southwest": {"lat": 30.2487800197085, "lng": -97.75590798029151}}, "location_type": "ROOFTOP"}, "address": "1417 S. 1st St., Austin, TX 78704", "address_components": [{"long_name": "1417", "short_name": "1417", "types": ["street_number"]}, {"long_name": "South 1st Street", "short_name": "S 1st St", "types": ["route"]}, {"long_name": "South Congress", "short_name": "South Congress", "types": ["neighborhood", "political"]}, {"long_name": "Austin", "short_name": "Austin", "types": ["locality", "political"]}, {"long_name": "Travis County", "short_name": "Travis County", "types": ["administrative_area_level_2", "political"]}, {"long_name": "Texas", "short_name": "TX", "types": ["administrative_area_level_1", "political"]}, {"long_name": "United States", "short_name": "US", "types": ["country", "political"]}, {"long_name": "78704", "short_name": "78704", "types": ["postal_code"]}], "formatted_address": "1417 South 1st Street, Austin, TX 78704, USA", "types": ["street_address"]}, {"website": "http://olivia-austin.com", "name": "Olivia", "geometry": {"location": {"lat": 30.2483007, "lng": -97.7693827}, "viewport": {"northeast": {"lat": 30.2496496802915, "lng": -97.7680337197085}, "southwest": {"lat": 30.2469517197085, "lng": -97.7707316802915}}, "location_type": "ROOFTOP"}, "address": "2043 S Lamar Blvd, Austin, TX 78704", "address_components": [{"long_name": "2043", "short_name": "2043", "types": ["street_number"]}, {"long_name": "South Lamar Boulevard", "short_name": "S Lamar Blvd", "types": ["route"]}, {"long_name": "Zilker", "short_name": "Zilker", "types": ["neighborhood", "political"]}, {"long_name": "Austin", "short_name": "Austin", "types": ["locality", "political"]}, {"long_name": "Travis County", "short_name": "Travis County", "types": ["administrative_area_level_2", "political"]}, {"long_name": "Texas", "short_name": "TX", "types": ["administrative_area_level_1", "political"]}, {"long_name": "United States", "short_name": "US", "types": ["country", "political"]}, {"long_name": "78704", "short_name": "78704", "types": ["postal_code"]}], "formatted_address": "2043 South Lamar Boulevard, Austin, TX 78704, USA", "types": ["street_address"]}, {"website": "", "name": "Jack Allen's Kitchen", "geometry": {"location": {"lat": 30.2435626, "lng": -97.8826232}, "viewport": {"northeast": {"lat": 30.2449115802915, "lng": -97.8812742197085}, "southwest": {"lat": 30.2422136197085, "lng": -97.88397218029151}}, "location_type": "ROOFTOP"}, "partial_match": true, "address": "7720 W Highway 71, Austin, TX 78735", "address_components": [{"long_name": "7720", "short_name": "7720", "types": ["street_number"]}, {"long_name": "Highway 71", "short_name": "TX-71", "types": ["route"]}, {"long_name": "West Oak Hill", "short_name": "West Oak Hill", "types": ["neighborhood", "political"]}, {"long_name": "Austin", "short_name": "Austin", "types": ["locality", "political"]}, {"long_name": "Travis County", "short_name": "Travis County", "types": ["administrative_area_level_2", "political"]}, {"long_name": "Texas", "short_name": "TX", "types": ["administrative_area_level_1", "political"]}, {"long_name": "United States", "short_name": "US", "types": ["country", "political"]}, {"long_name": "78735", "short_name": "78735", "types": ["postal_code"]}], "formatted_address": "7720 Texas 71, Austin, TX 78735, USA", "types": ["street_address"]}, {"website": "http://orientalgardenny.tumblr.com", "name": "Oriental Garden", "geometry": {"location": {"lat": 40.7158253, "lng": -73.9972592}, "viewport": {"northeast": {"lat": 40.71717428029149, "lng": -73.99591021970849}, "southwest": {"lat": 40.7144763197085, "lng": -73.9986081802915}}, "location_type": "ROOFTOP"}, "address": "14 Elizabeth St, New York, NY 10013", "address_components": [{"long_name": "14", "short_name": "14", "types": ["street_number"]}, {"long_name": "Elizabeth Street", "short_name": "Elizabeth St", "types": ["route"]}, {"long_name": "Lower Manhattan", "short_name": "Lower Manhattan", "types": ["neighborhood", "political"]}, {"long_name": "Manhattan", "short_name": "Manhattan", "types": ["sublocality", "political"]}, {"long_name": "New York", "short_name": "New York", "types": ["locality", "political"]}, {"long_name": "New York County", "short_name": "New York County", "types": ["administrative_area_level_2", "political"]}, {"long_name": "New York", "short_name": "NY", "types": ["administrative_area_level_1", "political"]}, {"long_name": "United States", "short_name": "US", "types": ["country", "political"]}, {"long_name": "10013", "short_name": "10013", "types": ["postal_code"]}], "formatted_address": "14 Elizabeth Street, New York, NY 10013, USA", "types": ["street_address"]}, {"website": "http://www.tamarinde22.com", "name": "Tamarind TriBeCa", "geometry": {"location": {"lat": 40.71917250000001, "lng": -74.0090084}, "viewport": {"northeast": {"lat": 40.72052148029151, "lng": -74.0076594197085}, "southwest": {"lat": 40.71782351970851, "lng": -74.01035738029151}}, "location_type": "ROOFTOP"}, "address": "99 Hudson St, New York, NY 10013", "address_components": [{"long_name": "99", "short_name": "99", "types": ["street_number"]}, {"long_name": "Hudson Street", "short_name": "Hudson St", "types": ["route"]}, {"long_name": "Lower Manhattan", "short_name": "Lower Manhattan", "types": ["neighborhood", "political"]}, {"long_name": "Manhattan", "short_name": "Manhattan", "types": ["sublocality", "political"]}, {"long_name": "New York", "short_name": "New York", "types": ["locality", "political"]}, {"long_name": "New York County", "short_name": "New York County", "types": ["administrative_area_level_2", "political"]}, {"long_name": "New York", "short_name": "NY", "types": ["administrative_area_level_1", "political"]}, {"long_name": "United States", "short_name": "US", "types": ["country", "political"]}, {"long_name": "10013", "short_name": "10013", "types": ["postal_code"]}], "formatted_address": "99 Hudson Street, New York, NY 10013, USA", "types": ["street_address"]}, {"website": "http://www.rubirosanyc.com", "name": "Rubirosa", "geometry": {"location": {"lat": 40.7227428, "lng": -73.9961989}, "viewport": {"northeast": {"lat": 40.7240917802915, "lng": -73.9948499197085}, "southwest": {"lat": 40.7213938197085, "lng": -73.9975478802915}}, "location_type": "ROOFTOP"}, "address": "235 Mulberry St, New York, NY 10012", "address_components": [{"long_name": "235", "short_name": "235", "types": ["street_number"]}, {"long_name": "Mulberry Street", "short_name": "Mulberry St", "types": ["route"]}, {"long_name": "Lower Manhattan", "short_name": "Lower Manhattan", "types": ["neighborhood", "political"]}, {"long_name": "Manhattan", "short_name": "Manhattan", "types": ["sublocality", "political"]}, {"long_name": "New York", "short_name": "New York", "types": ["locality", "political"]}, {"long_name": "New York County", "short_name": "New York County", "types": ["administrative_area_level_2", "political"]}, {"long_name": "New York", "short_name": "NY", "types": ["administrative_area_level_1", "political"]}, {"long_name": "United States", "short_name": "US", "types": ["country", "political"]}, {"long_name": "10012", "short_name": "10012", "types": ["postal_code"]}], "formatted_address": "235 Mulberry Street, New York, NY 10012, USA", "types": ["street_address"]}, {"website": "http://www.parmnyc.com", "name": "Parm", "geometry": {"location": {"lat": 40.72302699999999, "lng": -73.9956459}, "viewport": {"northeast": {"lat": 40.7243759802915, "lng": -73.9942969197085}, "southwest": {"lat": 40.7216780197085, "lng": -73.99699488029151}}, "location_type": "ROOFTOP"}, "address": "248 Mulberry St, New York, NY 10012", "address_components": [{"long_name": "248", "short_name": "248", "types": ["street_number"]}, {"long_name": "Mulberry Street", "short_name": "Mulberry St", "types": ["route"]}, {"long_name": "Lower Manhattan", "short_name": "Lower Manhattan", "types": ["neighborhood", "political"]}, {"long_name": "Manhattan", "short_name": "Manhattan", "types": ["sublocality", "political"]}, {"long_name": "New York", "short_name": "New York", "types": ["locality", "political"]}, {"long_name": "New York County", "short_name": "New York County", "types": ["administrative_area_level_2", "political"]}, {"long_name": "New York", "short_name": "NY", "types": ["administrative_area_level_1", "political"]}, {"long_name": "United States", "short_name": "US", "types": ["country", "political"]}, {"long_name": "10012", "short_name": "10012", "types": ["postal_code"]}], "formatted_address": "248 Mulberry Street, New York, NY 10012, USA", "types": ["street_address"]}, {"website": "http://www.balthazarny.com", "name": "Balthazar Restaurant", "geometry": {"location": {"lat": 40.7226041, "lng": -73.9982235}, "viewport": {"northeast": {"lat": 40.7239530802915, "lng": -73.9968745197085}, "southwest": {"lat": 40.7212551197085, "lng": -73.9995724802915}}, "location_type": "ROOFTOP"}, "address": "80 Spring St, New York, NY 10012", "address_components": [{"long_name": "80", "short_name": "80", "types": ["street_number"]}, {"long_name": "Spring Street", "short_name": "Spring St", "types": ["route"]}, {"long_name": "Lower Manhattan", "short_name": "Lower Manhattan", "types": ["neighborhood", "political"]}, {"long_name": "Manhattan", "short_name": "Manhattan", "types": ["sublocality", "political"]}, {"long_name": "New York", "short_name": "New York", "types": ["locality", "political"]}, {"long_name": "New York County", "short_name": "New York County", "types": ["administrative_area_level_2", "political"]}, {"long_name": "New York", "short_name": "NY", "types": ["administrative_area_level_1", "political"]}, {"long_name": "United States", "short_name": "US", "types": ["country", "political"]}, {"long_name": "10012", "short_name": "10012", "types": ["postal_code"]}], "formatted_address": "80 Spring Street, New York, NY 10012, USA", "types": ["street_address"]}, {"website": "http://www.thedutchnyc.com", "name": "The Dutch", "geometry": {"location": {"lat": 40.7265685, "lng": -74.002145}, "viewport": {"northeast": {"lat": 40.7279174802915, "lng": -74.00079601970849}, "southwest": {"lat": 40.7252195197085, "lng": -74.00349398029151}}, "location_type": "ROOFTOP"}, "partial_match": true, "address": "131 Sullivan St, New York, NY 10000", "address_components": [{"long_name": "131", "short_name": "131", "types": ["street_number"]}, {"long_name": "Sullivan Street", "short_name": "Sullivan St", "types": ["route"]}, {"long_name": "Lower Manhattan", "short_name": "Lower Manhattan", "types": ["neighborhood", "political"]}, {"long_name": "Manhattan", "short_name": "Manhattan", "types": ["sublocality", "political"]}, {"long_name": "New York", "short_name": "New York", "types": ["locality", "political"]}, {"long_name": "New York County", "short_name": "New York County", "types": ["administrative_area_level_2", "political"]}, {"long_name": "New York", "short_name": "NY", "types": ["administrative_area_level_1", "political"]}, {"long_name": "United States", "short_name": "US", "types": ["country", "political"]}, {"long_name": "10012", "short_name": "10012", "types": ["postal_code"]}], "formatted_address": "131 Sullivan Street, New York, NY 10012, USA", "types": ["street_address"]}, {"website": "http://www.peasantnyc.com", "name": "Peasant", "geometry": {"location": {"lat": 40.721696, "lng": -73.994272}, "viewport": {"northeast": {"lat": 40.7230449802915, "lng": -73.9929230197085}, "southwest": {"lat": 40.7203470197085, "lng": -73.9956209802915}}, "location_type": "ROOFTOP"},